     3.03           OBSERVATION DATA    M: Mixed            RINEX VERSION / TYPE
CONVBIN 1.0.1 Emlid                     20240110 160417 UTC PGM / RUN BY / DATE 
log: MACROCOSM-2_raw_202401101542.24                        COMMENT             
format: u-blox                                              COMMENT             
                                                            MARKER NAME         
                                                            MARKER NUMBER       
                                                            MARKER TYPE         
                                                            OBSERVER / AGENCY   
                    EMLID REACH M2                          REC # / TYPE / VERS 
                                                            ANT # / TYPE        
  2481178.0508 -5525675.3309  1992285.0862                  APPROX POSITION XYZ 
        0.0000        0.0000        0.0000                  ANTENNA: DELTA H/E/N
G    8 C1C L1C D1C S1C C2X L2X D2X S2X                      SYS / # / OBS TYPES 
R    8 C1C L1C D1C S1C C2C L2C D2C S2C                      SYS / # / OBS TYPES 
E    8 C1X L1X D1X S1X C7X L7X D7X S7X                      SYS / # / OBS TYPES 
J    8 C1C L1C D1C S1C C2X L2X D2X S2X                      SYS / # / OBS TYPES 
C    8 C2I L2I D2I S2I C7I L7I D7I S7I                      SYS / # / OBS TYPES 
     1.000                                                  INTERVAL            
  2024     1    10    15    43   51.0030000     GPS         TIME OF FIRST OBS   
  2024     1    10    16     4   36.0040000     GPS         TIME OF LAST OBS    
G                                                           SYS / PHASE SHIFT   
R                                                           SYS / PHASE SHIFT   
E                                                           SYS / PHASE SHIFT   
J                                                           SYS / PHASE SHIFT   
C                                                           SYS / PHASE SHIFT   
  0                                                         GLONASS SLOT / FRQ #
 C1C    0.000 C1P    0.000 C2C    0.000 C2P    0.000        GLONASS COD/PHS/BIS 
                                                            END OF HEADER       
> 2024  1 10 15 43 51.0030000  0 11                     
G 4  25739777.775 8               7      1955.542          27.000                                                                  
G16  21640845.427 1 113723409.53512      -280.725          38.000                                                                  
G26  21292471.019 1 111892688.824 1     -2288.547          44.000    21292477.223 9                     -1795.133          21.000  
G28  23270631.122 1 122287991.839 2     -2000.350          40.000    23270638.660 1  95289373.80812     -1558.704          38.000  
G31  22707806.173 2 119330327.05815     -1617.652          32.000    22707813.832 2               7     -1260.128          29.000  
G32  22891161.780 1 120293867.901 3     -3470.798          36.000    22891178.700 8                     -2706.120          26.000  
R 7  20260541.592 1 108456264.80312     -2625.742          41.000    20260547.279 2  84354896.03413     -2042.208          36.000  
R 8  21434892.257 2 114782874.79912      1193.208          40.000    21434893.598 2  89275573.892 4       927.799          32.000  
R 9  23700500.167 9                     -3971.492          26.000    23700491.039 4                     -3088.940          24.000  
R10  21831265.775 2 116372929.73614     -3018.438          35.000    21320374.107 4  88394125.82525       766.289          32.000  
R11  22911679.396 2 122433067.341 3      -656.403          35.000                                                                  
> 2024  1 10 15 43 52.0030000  0 11                     
G 4  25739407.577 4                      1955.306          28.000                                                                  
G16  21640898.970 1 113723690.567 3      -281.329          38.000                                                                  
G26  21292906.648 1 111894977.673 1     -2289.369          44.000    21292912.835 9                     -1784.713          19.000  
G28  23271011.876 1 122289992.488 2     -2001.092          39.000    23271019.354 1  95290932.760 3     -1559.542          38.000  
G31  22708113.701 2 119331944.459 5     -1617.671          32.000    22708121.426 2               7     -1260.637          29.000  
G32  22891822.141 1 120297339.131 4     -3471.886          35.000    22891838.540 8                     -2704.742          26.000  
R 7  20261032.146 1 108458891.185 2     -2627.245          41.000    20261037.838 2  84356938.765 3     -2043.111          36.000  
R 8  21434669.125 1 114781681.881 2      1192.111          40.000    21434670.753 4  89274646.034 5       927.661          32.000  
R 9  23701239.042 9                     -3972.459          26.000    23701234.850 4                     -3089.227          24.000  
R10  21831832.049 2 116375948.560 4     -3018.335          35.000    21320189.563 4               7       764.677          32.000  
R11  22911802.322 2 122433723.659 3      -656.535          35.000                                                                  
> 2024  1 10 15 43 53.0030000  0 11                     
G 4  25739034.299 8               7      1954.630          28.000                                                                  
G16  21640952.662 1 113723972.760 2      -282.843          38.000                                                                  
G26  21293342.592 1 111897267.521 1     -2290.506          45.000    21293350.182 9                     -1785.635          19.000  
G28  23271392.620 1 122291993.672 2     -2001.663          40.000    23271400.122 1  95292492.116 3     -1559.774          38.000  
G31  22708421.361 2 119333562.435 5     -1617.749          32.000    22708429.169 2               6     -1261.299          29.000  
G32  22892482.674 1 120300811.342 3     -3472.641          35.000    22892498.683 8                     -2707.473          26.000  
R 7  20261522.986 1 108461518.978 2     -2628.501          42.000    20261528.559 2  84358982.643 3     -2044.901          36.000  
R 8  21434446.137 1 114780490.174 2      1191.045          40.000    21434448.080 4  89273719.176 5       926.310          32.000  
R 9  23701986.025 9                     -3972.710          26.000    23701978.727 4                     -3089.781          24.000  
R10  21832398.527 2 116378968.112 3     -3019.653          35.000    21320005.086 4               6       762.973          32.000  
R11  22911925.424 2 122434380.944 4      -658.011          34.000                                                                  
> 2024  1 10 15 43 54.0030000  0 11                     
G 4  25738664.290 8                      1954.294          27.000                                                                  
G16  21641006.653 1 113724256.042 3      -284.064          38.000                                                                  
G26  21293778.804 1 111899558.329 1     -2291.464          45.000    21293786.320 9                     -1782.950          19.000  
G28  23271773.615 1 122293995.410 2     -2001.747          39.000    23271781.035 1  95294051.905 3     -1559.831          38.000  
G31  22708729.103 2               6     -1619.429          31.000    22708737.084 2               6     -1260.769          29.000  
G32  22893143.409 1 120304284.625 3     -3473.886          36.000    22893158.693 8                     -2706.428          26.000  
R 7  20262014.105 1 108464148.189 2     -2630.007          42.000    20262019.482 2  84361027.547 3     -2045.617          36.000  
R 8  21434223.604 1 114779299.650 2      1189.909          40.000    21434225.565 4  89272793.244 5       924.919          32.000  
R 9  23702728.411 9                     -3973.734          26.000    23702721.054 9                     -3087.766          24.000  
R10  21832965.130 2 116381988.356 3     -3020.459          35.000    21319820.659 4               6       764.330          32.000  
R11  22912048.758 2 122435039.096 4      -658.791          34.000                                                                  
> 2024  1 10 15 43 55.0030000  0 11                     
G 4  25738293.923 8                      1953.388          27.000                                                                  
G16  21641060.747 1 113724540.411 3      -285.529          38.000                                                                  
G26  21294214.872 1 111901850.076 1     -2292.157          45.000    21294222.595 9                     -1787.416          19.000  
G28  23272154.652 1 122295997.713 2     -2002.516          39.000    23272162.133 1  95295612.133 2     -1560.413          38.000  
G31  22709036.843 2               7     -1619.570          31.000    22709045.143 2                     -1261.685          29.000  
G32  22893804.439 1 120307758.855 3     -3474.553          36.000    22893820.013 9                     -2708.541          26.000  
R 7  20262505.552 1 108466778.793 2     -2631.437          42.000    20262510.883 2  84363073.582 3     -2046.686          36.000  
R 8  21434001.321 2 114778110.322 2      1188.825          40.000    21434003.389 4               6       924.560          32.000  
R 9  23703474.876 9                     -3973.188          27.000                                                                  
R10  21833531.729 2 116385009.225 4     -3021.081          35.000    21319636.614 4               6       762.682          32.000  
R11  22912172.085 2 122435698.178 4      -659.523          33.000                                                                  
> 2024  1 10 15 43 56.0030000  0 11                     
G 4  25737921.604 8               7      1952.988          27.000                                                                  
G16  21641115.141 1 113724825.944 3      -286.609          38.000                                                                  
G26  21294651.365 1 111904142.833 1     -2293.614          45.000    21294658.073 9                     -1789.240          20.000  
G28  23272535.749 1 122298000.625 2     -2003.758          39.000    23272543.265 1  95297172.816 3     -1560.882          38.000  
G31  22709344.765 4               7     -1621.062          30.000    22709353.246 2               7     -1262.327          28.000  
G32  22894465.908 1 120311234.166 3     -3475.795          36.000    22894481.604 8                     -2708.281          26.000  
R 7  20262997.284 1 108469410.814 2     -2633.089          42.000    20263002.430 2  84365120.724 3     -2047.737          36.000  
R 8  21433779.247 1 114776922.228 2      1187.104          39.000    21433781.386 4               6       923.299          32.000  
R 9  23704217.988 9                     -3973.925          27.000                                                                  
R10  21834098.455 2 116388030.847 5     -3022.046          35.000    21319452.483 4               6       761.148          32.000  
R11  22912295.561 2 122436358.187 5      -660.880          33.000                                                                  
> 2024  1 10 15 43 57.0030000  0 11                     
G 4  25737548.521 8                      1952.560          27.000                                                                  
G16  21641169.704 1 113725112.599 3      -287.311          38.000                                                                  
G26  21295088.062 1 111906436.586 1     -2294.110          45.000    21295094.943 9                     -1783.692          20.000  
G28  23272916.984 1 122300004.093 2     -2003.356          39.000    23272924.461 1  95298733.978 2     -1561.339          38.000  
G31  22709652.705 4               7     -1619.969          31.000    22709661.528 2               7     -1263.019          29.000  
G32  22895127.446 1 120314710.539 3     -3476.819          36.000    22895142.686 8                     -2709.467          27.000  
R 7  20263489.285 1 108472044.292 2     -2633.998          42.000    20263494.223 2  84367168.976 3     -2048.747          36.000  
R 8  21433557.231 1 114775735.363 2      1186.475          40.000    21433559.805 4               6       922.625          32.000  
R 9  23704962.257 9                     -3973.851          28.000                                                                  
R10  21834665.450 2 116391053.137 5     -3021.997          34.000    21319268.751 4  88389545.89225       760.299          32.000  
R11  22912419.224 4 122437019.176 5      -662.186          33.000    22912425.685 4               7      -514.293          29.000  
> 2024  1 10 15 43 58.0030000  0 12                     
G 4  25737181.150 8               7      1952.365          28.000                                                                  
G16  21641224.526 1 113725400.282 3      -288.348          38.000                                                                  
G26  21295524.815 1 111908731.212 1     -2295.003          45.000    21295532.161 9                     -1786.423          21.000  
G28  23273298.346 1 122302008.071 2     -2004.183          39.000    23273305.799 1  95300295.518 3     -1561.897          38.000  
G31  22709960.641 4               7     -1621.634          30.000    22709969.669 2               6     -1263.200          29.000  
G32  22895789.093 1 120318187.805 3     -3477.407          36.000    22895804.124 8                     -2709.498          27.000  
R 7  20263981.549 1 108474679.109 1     -2635.397          42.000    20263986.376 2  84369218.291 3     -2049.663          36.000  
R 8  21433335.631 1 114774549.578 2      1185.324          40.000    21433338.176 4               7       922.439          31.000  
R 9  23705707.991 9               7     -3974.421          28.000                                                                  
R10  21835232.451 2 116394076.069 5     -3023.511          34.000    21319085.340 4  88388785.89525       759.526          33.000  
R11  22912543.232 2 122437680.902 5      -661.775          33.000    22912549.571 4               7      -514.947          28.000  
C19  25561809.715 1 133107049.78912       817.221          38.000                                                                  
> 2024  1 10 15 43 59.0030000  0 12                     
G 4  25736812.145 8               7      1951.167          30.000                                                                  
G16  21641279.698 1 113725688.981 3      -289.221          38.000                                                                  
G26  21295961.744 1 111911026.702 1     -2296.036          45.000    21295967.989 9                     -1794.436          22.000  
G28  23273679.765 1 122304012.495 2     -2005.015          39.000    23273687.164 1  95301857.378 2     -1562.078          38.000  
G31  22710268.521 4               6     -1621.172          31.000    22710278.050 2               7     -1263.238          29.000  
G32  22896450.877 1 120321666.029 3     -3479.028          36.000    22896466.177 8               7     -2710.711          27.000  
R 7  20264474.155 1 108477315.247 1     -2636.818          42.000    20264478.757 2  84371268.625 3     -2051.141          36.000  
R 8  21433114.126 1 114773364.880 2      1184.276          40.000    21433116.749 4               7       921.368          31.000  
R 9  23706453.058 9               7     -3974.358          28.000                                                                  
R10  21835799.710 2 116397099.510 4     -3023.486          34.000    21318902.134 4  88388026.72425       758.917          33.000  
R11  22912667.356 2 122438343.521 4      -663.271          33.000    22912673.539 4               7      -515.673          28.000  
C19  25561652.819 1 133106232.896 3       816.448          38.000                                                                  
> 2024  1 10 15 44  0.0030000  0 12                     
G 4  25736440.292 8                      1952.466          30.000                                                                  
G16  21641334.733 1 113725978.792 3      -290.460          38.000                                                                  
G26  21296398.912 1 111913323.137 2     -2296.771          44.000    21296408.189 9                     -1784.687          22.000  
G28  23274061.278 1 122306017.457 3     -2005.300          39.000    23274068.630 1  95303419.687 3     -1562.621          38.000  
G31  22710576.816 4               7     -1621.010          31.000    22710586.412 2               6     -1263.602          29.000  
G32  22897112.913 1 120325145.238 3     -3479.760          36.000    22897128.201 8                     -2711.413          27.000  
R 7  20264966.831 1 108479952.803 2     -2638.319          43.000    20264971.446 2  84373320.023 4     -2051.836          36.000  
R 8  21432892.904 1 114772181.393 2      1182.803          40.000    21432895.596 4               6       920.276          31.000  
R 9  23707197.450 9                     -3975.405          28.000                                                                  
R10  21836366.972 2 116400123.650 5     -3024.670          34.000    21318719.222 4  88387268.55824       757.862          33.000  
R11  22912791.511 2 122439006.979 5      -663.623          33.000    22912797.759 4               7      -516.652          28.000  
C19  25561496.130 1 133105416.905 3       815.561          38.000                                                                  
> 2024  1 10 15 44  1.0030000  0 12                     
G 4  25736069.031 8                      1951.004          29.000                                                                  
G16  21641390.128 1 113726269.745 3      -291.425          38.000                                                                  
G26  21296836.167 1 111915620.611 1     -2298.019          45.000    21296845.656 9                     -1787.707          22.000  
G28  23274442.896 1 122308023.058 3     -2005.862          39.000    23274450.182 1  95304982.481 3     -1563.201          38.000  
G31  22710885.042 4               7     -1622.903          31.000    22710895.005 2               6     -1264.368          28.000  
G32  22897775.261 1 120328625.522 3     -3480.897          36.000    22897790.373 8                     -2712.581          28.000  
R 7  20265460.018 1 108482591.842 1     -2639.826          43.000    20265464.425 2  84375372.626 4     -2053.415          35.000  
R 8  21432671.993 1 114770999.174 2      1181.684          40.000    21432674.755 4  89266337.299 5       918.129          31.000  
R 9  23707943.295 8                     -3975.554          27.000                                                                  
R10  21836934.339 2 116403148.534 4     -3025.171          34.000    21318536.754 4  88386511.38724       756.528          33.000  
R11  22912916.048 2 122439671.474 5      -665.428          33.000    22912921.965 4               7      -516.869          28.000  
C19  25561339.568 1 133104601.874 3       814.579          38.000                                                                  
> 2024  1 10 15 44  2.0030000  0 13                     
G 3  23895858.234 9                      -981.250          36.000                                                                  
G 4  25735697.211 8               7      1950.600          28.000                                                                  
G16  21641445.577 1 113726561.654 3      -292.273          38.000                                                                  
G26  21297273.615 1 111917918.879 1     -2298.573          44.000    21297283.487 9                     -1783.660          23.000  
G28  23274824.586 1 122310028.992 2     -2005.709          39.000    23274831.854 1  95306545.552 3     -1562.715          38.000  
G31  22711193.184 4               7     -1622.312          30.000    22711203.693 2               7     -1264.828          28.000  
G32  22898437.617 1 120332106.660 4     -3481.402          36.000    22898452.899 8               7     -2712.724          27.000  
R 7  20265953.389 1 108485232.119 2     -2640.608          43.000    20265957.544 2  84377426.172 4     -2053.887          35.000  
R 8  21432451.271 1 114769817.998 2      1180.865          40.000    21432454.087 4               6       917.893          31.000  
R 9  23708688.827 9                     -3975.659          27.000                                                                  
R10  21837501.894 2 116406173.873 4     -3024.908          35.000    21318354.223 4  88385755.00525       756.161          33.000  
R11  22913040.337 2 122440336.610 4      -665.066          33.000    22913046.441 4               7      -517.386          28.000  
C19  25561183.050 1 133103787.550 3       814.237          37.000                                                                  
> 2024  1 10 15 44  3.0030000  0 13                     
G 3  23896045.648 9 125574561.48535      -983.833          35.000    23896086.445 9                      -766.187          27.000  
G 4  25735324.407 4               7      1950.579          28.000                                                                  
G16  21641501.112 1 113726854.584 2      -293.207          38.000                                                                  
G26  21297711.184 1 111920218.010 1     -2299.545          44.000    21297721.873 9                     -1787.894          24.000  
G28  23275206.430 1 122312035.457 3     -2006.233          38.000    23275213.616 1  95308109.015 3     -1563.527          38.000  
G31  22711501.657 2               6     -1623.226          30.000    22711512.488 2               7     -1264.931          28.000  
G32  22899100.345 1 120335588.716 3     -3482.797          36.000    22899115.225 8                     -2713.166          28.000  
R 7  20266446.989 1 108487873.709 1     -2642.171          43.000    20266451.039 2  84379480.752 3     -2055.553          36.000  
R 8  21432230.686 1 114768637.956 2      1179.761          40.000    21432233.721 4               7       916.475          31.000  
R 9  23709431.813 8                     -3976.077          27.000                                                                  
R10  21838069.502 2 116409199.813 4     -3025.763          35.000    21318172.276 4  88384999.52525       755.266          33.000  
R11  22913165.003 2 122441002.649 5      -666.341          33.000    22913171.113 4               7      -518.246          27.000  
C19  25561026.644 1 133102974.062 3       813.621          37.000                                                                  
> 2024  1 10 15 44  4.0030000  0 13                     
G 3  23896232.808 8 125575545.80723      -984.870          35.000    23896266.528 9                      -767.519          27.000  
G 4  25734955.988 8 135238073.632 5      1950.259          28.000                                                                  
G16  21641557.014 1 113727148.490 2      -293.842          38.000                                                                  
G26  21298148.992 1 111922517.993 1     -2300.503          44.000    21298158.717 9                     -1795.123          25.000  
G28  23275588.406 1 122314042.342 3     -2007.111          38.000    23275595.451 1  95309672.816 2     -1563.897          38.000  
G31  22711810.402 4               7     -1625.133          31.000    22711821.241 2                     -1264.889          28.000  
G32  22899763.184 1 120339071.648 3     -3483.474          35.000    22899779.164 8               7     -2714.731          28.000  
R 7  20266940.717 1 108490516.571 1     -2643.562          43.000    20266944.813 2  84381536.304 3     -2056.093          36.000  
R 8  21432010.352 1 114767459.011 2      1178.424          40.000    21432013.529 4               6       915.832          30.000  
R 9  23710175.169 8                     -3975.951          26.000                                                                  
R10  21838637.367 2 116412226.295 4     -3026.495          34.000    21317990.424 2  88384244.91125       754.307          33.000  
R11  22913289.777 2 122441669.449 5      -667.484          33.000    22913295.985 4                      -518.639          27.000  
C19  25560870.517 1 133102161.390 3       812.346          36.000                                                                  
> 2024  1 10 15 44  5.0030000  0 13                     
G 3  23896421.496 4 125576531.01423      -985.676          35.000    23896447.854 9                      -767.975          27.000  
G 4  25734583.991 8               6      1948.976          28.000                                                                  
G16  21641612.776 1 113727443.347 3      -295.416          38.000                                                                  
G26  21298586.878 1 111924818.735 1     -2301.013          44.000    21298595.983 8                     -1793.392          26.000  
G28  23275970.311 1 122316049.569 2     -2007.259          39.000    23275977.409 1  95311236.889 3     -1563.992          38.000  
G31  22712119.228 4               7     -1623.399          31.000    22712130.153 2                     -1265.876          27.000  
G32  22900426.094 1 120342555.384 3     -3483.860          35.000    22900442.656 8               7     -2714.899          28.000  
R 7  20267434.633 1 108493160.647 1     -2644.507          43.000    20267438.661 2  84383592.775 3     -2056.613          36.000  
R 8  21431790.162 1 114766281.028 2      1177.723          40.000    21431793.505 4               7       916.186          30.000  
R 9  23710920.578 9                     -3977.493          26.000                                                                  
R10  21839205.334 2 116415253.269 4     -3027.222          34.000    21317808.479 2  88383491.12525       752.977          33.000  
R11  22913414.606 2 122442336.950 4      -668.199          33.000    22913420.922 4                      -519.585          27.000  
C19  25560714.436 1 133101349.384 3       811.844          36.000                                                                  
> 2024  1 10 15 44  6.0030000  0 13                     
G 3  23896608.890 4 125577517.14823      -986.509          35.000    23896634.353 9                      -768.672          27.000  
G 4  25734213.223 4               7      1949.349          28.000                                                                  
G16  21641668.857 1 113727739.084 4      -296.338          37.000                                                                  
G26  21299024.929 1 111927120.225 1     -2301.697          44.000    21299034.576 8                     -1793.704          26.000  
G28  23276352.467 1 122318057.172 2     -2008.105          39.000    23276359.441 1  95312801.247 3     -1564.553          38.000  
G31  22712427.860 2               6     -1624.750          31.000    22712439.208 2                     -1265.578          27.000  
G32  22901089.250 1 120346039.952 3     -3484.927          35.000    22901107.102 8               7     -2715.369          28.000  
R 7  20267929.036 1 108495805.926 1     -2645.837          43.000    20267932.758 2  84385650.229 3     -2057.688          36.000  
R 8  21431570.209 1 114765104.017 2      1176.710          39.000    21431573.565 4               6       915.332          29.000  
R 9  23711665.182 9                     -3975.925          26.000                                                                  
R10  21839773.397 2 116418280.650 4     -3026.672          34.000    21317627.122 2  88382738.09925       752.450          33.000  
R11  22913539.700 2 122443005.143 5      -668.895          33.000    22913545.999 4                      -520.168          27.000  
C19  25560558.538 1 133100538.084 3       811.240          36.000                                                                  
> 2024  1 10 15 44  7.0030000  0 13                     
G 3  23896796.766 2 125578504.19024      -987.045          35.000    23896824.096 9                      -769.445          27.000  
G 4  25733842.567 4               6      1949.418          28.000                                                                  
G16  21641725.181 1 113728035.697 4      -296.851          37.000                                                                  
G26  21299463.126 1 111929422.495 1     -2302.405          44.000    21299472.016 8               7     -1794.135          26.000  
G28  23276734.554 1 122320065.098 2     -2007.903          39.000    23276741.548 1  95314365.869 2     -1564.414          38.000  
G31  22712736.991 2               6     -1624.192          31.000    22712748.161 2                     -1265.467          26.000  
G32  22901752.566 1 120349525.343 3     -3485.312          36.000    22901770.971 8               7     -2715.441          28.000  
R 7  20268423.611 1 108498452.451 1     -2646.974          44.000    20268427.286 2  84387708.619 3     -2058.659          36.000  
R 8  21431350.469 1 114763928.017 2      1175.398          39.000    21431353.720 4               6       914.509          29.000  
R 9  23712408.393 9                     -3976.869          25.000                                                                  
R10  21840341.562 2 116421308.587 4     -3028.027          34.000    21317445.797 2  88381985.86025       752.285          33.000  
R11  22913664.802 2 122443674.029 4      -668.470          33.000    22913671.170 4               7      -520.249          28.000  
C19  25560402.836 1 133099727.513 3       810.476          36.000                                                                  
> 2024  1 10 15 44  8.0030000  0 13                     
G 3  23896984.855 1 125579491.56713      -988.677          36.000    23897012.213 9               7      -770.314          28.000  
G 4  25733471.475 4               6      1947.974          29.000                                                                  
G16  21641781.702 1 113728333.190 3      -297.821          37.000                                                                  
G26  21299901.388 1 111931725.426 1     -2303.377          44.000    21299910.711 8                     -1795.074          27.000  
G28  23277116.672 1 122322073.326 2     -2008.531          39.000    23277123.733 1  95315930.697 3     -1564.651          38.000  
G31  22713046.033 2               6     -1626.104          31.000    22713057.081 2                     -1266.824          26.000  
G32  22902416.078 1 120353011.444 3     -3486.357          36.000    22902434.799 8               7     -2717.193          28.000  
R 7  20268918.329 1 108501100.087 1     -2648.273          44.000    20268921.983 2  84389767.919 3     -2060.186          36.000  
R 8  21431130.850 1 114762752.890 2      1174.399          40.000    21431134.228 4               6       913.615          29.000  
R 9  23713151.800 9                     -3979.167          25.000                                                                  
R10  21840909.750 2 116424336.868 4     -3029.199          34.000    21317264.536 2  88381234.36525       751.109          34.000  
R11  22913790.189 2 122444343.563 4      -670.267          33.000    22913796.489 4               7      -520.870          28.000  
C19  25560247.151 1 133098917.582 3       809.211          36.000                                                                  
> 2024  1 10 15 44  9.0030000  0 13                     
G 3  23897173.041 1 125580480.407 3      -989.311          36.000    23897199.501 9                      -770.572          28.000  
G 4  25733100.525 4               6      1948.409          28.000                                                                  
G16  21641838.338 1 113728631.674 3      -299.170          37.000                                                                  
G26  21300339.851 1 111934029.225 1     -2304.169          44.000    21300349.232 8               7     -1795.871          27.000  
G28  23277498.929 1 122324081.996 3     -2008.710          39.000    23277505.913 1  95317495.925 2     -1565.656          38.000  
G31  22713355.151 4               6     -1626.698          31.000    22713366.332 2                     -1266.350          25.000  
G32  22903079.751 1 120356498.470 3     -3487.196          36.000    22903099.176 8               7     -2717.634          29.000  
R 7  20269413.239 1 108503749.036 1     -2649.619          44.000    20269416.761 2  84391828.197 3     -2060.586          35.000  
R 8  21430911.412 1 114761578.864 2      1173.145          40.000    21430914.758 4               6       913.257          29.000  
R 9  23713896.751 9                     -3976.669          24.000                                                                  
R10  21841478.055 2 116427365.724 4     -3029.309          34.000    21317083.367 2  88380483.75824       750.200          34.000  
R11  22913915.662 2 122445013.906 4      -670.862          33.000    22913921.798 4               6      -521.772          28.000  
C19  25560091.663 1 133098108.413 4       808.705          35.000                                                                  
> 2024  1 10 15 44 10.0030000  0 13                     
G 3  23897361.379 1 125581470.192 3      -990.048          36.000    23897386.629 8                      -771.956          27.000  
G 4  25732729.706 2               6      1948.599          29.000                                                                  
G16  21641895.162 1 113728931.070 3      -299.548          37.000                                                                  
G26  21300778.459 1 111936333.820 1     -2305.319          44.000    21300788.348 8               7     -1795.807          28.000  
G28  23277881.332 1 122326091.073 3     -2009.872          38.000    23277888.184 1  95319061.412 2     -1565.821          38.000  
G31  22713664.205 2 119361145.298 5     -1626.484          31.000    22713675.557 2                     -1266.690          25.000  
G32  22903743.545 1 120359986.347 3     -3488.391          35.000    22903762.894 8               6     -2717.895          29.000  
R 7  20269908.379 1 108506399.195 1     -2650.753          44.000    20269911.813 2  84393889.432 3     -2062.012          35.000  
R 8  21430692.098 2 114760405.859 2      1172.313          40.000    21430695.561 4               6       911.693          29.000  
R 9  23714639.936 9                     -3977.711          24.000                                                                  
R10  21842046.546 2 116430395.055 4     -3030.151          35.000    21316902.638 4  88379733.94825       749.957          34.000  
R11  22914041.160 2 122445684.923 5      -671.208          33.000    22914047.243 4               6      -522.090          28.000  
C19  25559936.348 1 133097299.976 3       808.067          35.000                                                                  
> 2024  1 10 15 44 11.0030000  0 13                     
G 3  23897549.790 1 125582460.913 3      -991.375          36.000    23897573.846 8                      -772.831          27.000  
G 4  25732358.754 2 135224431.012 5      1947.382          29.000                                                                  
G16  21641952.154 1 113729231.386 3      -300.110          37.000                                                                  
G26  21301217.162 1 111938639.166 1     -2305.804          44.000    21301227.867 8               6     -1796.844          28.000  
G28  23278263.786 1 122328100.474 3     -2009.429          38.000    23278270.612 1  95320627.181 2     -1565.660          38.000  
G31  22713973.520 2 119362771.461 5     -1627.005          31.000    22713984.884 4                     -1267.178          25.000  
G32  22904407.401 1 120363475.044 4     -3489.094          35.000    22904427.577 8               6     -2719.192          29.000  
R 7  20270403.775 1 108509050.562 1     -2651.937          44.000    20270407.008 2  84395951.610 3     -2062.450          35.000  
R 8  21430473.155 1 114759233.879 2      1171.158          40.000    21430476.539 4               6       910.611          28.000  
R 9  23715383.246 9                     -3978.458          23.000                                                                  
R10  21842614.954 2 116433424.883 4     -3029.877          35.000    21316721.970 2  88378984.99724       748.383          34.000  
R11  22914166.882 2 122446356.668 5      -672.139          34.000    22914172.784 4               6      -522.703          28.000  
C19  25559781.277 1 133096492.263 3       807.703          35.000                                                                  
> 2024  1 10 15 44 12.0030000  0 13                     
G 3  23897738.512 1 125583452.619 3      -991.866          36.000    23897762.542 8                      -773.464          27.000  
G 4  25731988.256 2 135222483.325 5      1947.686          29.000                                                                  
G16  21642009.403 1 113729532.787 3      -301.794          36.000                                                                  
G26  21301655.895 1 111940945.409 1     -2306.673          44.000    21301666.486 8  87226758.91815     -1797.580          28.000  
G28  23278646.360 1 122330110.390 3     -2010.124          38.000    23278653.073 1  95322193.340 2     -1566.083          38.000  
G31  22714282.873 2 119364398.094 5     -1626.944          32.000    22714294.431 4                     -1268.595          25.000  
G32  22905071.515 1 120366964.677 4     -3489.997          35.000    22905090.891 8               6     -2720.057          29.000  
R 7  20270899.377 1 108511703.301 1     -2653.520          43.000    20270902.727 2  84398014.855 3     -2064.183          36.000  
R 8  21430254.469 1 114758063.059 2      1170.170          40.000    21430257.754 4               7       910.380          28.000  
R 9  23716127.640 9                     -3978.096          24.000                                                                  
R10  21843183.631 2 116436455.349 4     -3030.505          34.000    21316541.546 2  88378236.90024       747.236          33.000  
R11  22914292.736 2 122447029.269 4      -673.171          34.000    22914298.567 4              16      -523.695          28.000  
C19  25559626.248 1 133095685.388 4       806.321          35.000                                                                  
> 2024  1 10 15 44 13.0030000  0 13                     
G 3  23897927.358 1 125584445.337 4      -993.155          36.000    23897951.465 8                      -774.042          27.000  
G 4  25731617.656 2               7      1947.322          29.000                                                                  
G16  21642066.799 1 113729835.144 4      -302.576          36.000                                                                  
G26  21302094.916 1 111943252.491 1     -2307.311          44.000    21302105.899 8  87228556.606 5     -1797.816          29.000  
G28  23279028.871 1 122332120.731 3     -2010.533          37.000    23279035.584 1  95323759.826 2     -1566.431          38.000  
G31  22714592.419 2 119366025.188 5     -1627.299          32.000    22714603.790 4                     -1267.821          25.000  
G32  22905735.923 1 120370455.186 3     -3490.387          36.000    22905754.204 8               6     -2720.127          29.000  
R 7  20271395.229 1 108514357.294 2     -2654.482          43.000    20271398.334 2  84400079.071 3     -2064.880          35.000  
R 8  21430035.898 1 114756893.314 2      1169.212          40.000    21430039.216 4               7       909.499          28.000  
R 9  23716874.219 9                     -3978.049          25.000                                                                  
R10  21843752.393 2 116439486.341 5     -3031.360          34.000    21316361.283 2  88377489.67524       746.713          34.000  
R11  22914418.966 2 122447702.642 3      -673.542          35.000    22914424.633 4               7      -524.118          28.000  
C19  25559471.456 1 133094879.289 3       806.120          35.000                                                                  
> 2024  1 10 15 44 14.0030000  0 13                     
G 3  23898116.318 1 125585438.937 3      -993.895          35.000    23898140.390 8               7      -774.819          27.000  
G 4  25731247.083 4               7      1947.366          30.000                                                                  
G16  21642124.336 1 113730138.428 3      -303.705          36.000                                                                  
G26  21302534.137 1 111945560.333 1     -2308.205          44.000    21302544.722 8               6     -1798.710          28.000  
G28  23279411.604 1 122334131.430 3     -2010.770          37.000    23279418.313 1  95325326.595 3     -1566.775          38.000  
G31  22714901.670 2 119367652.633 5     -1627.317          32.000    22714913.368 4                     -1268.000          24.000  
G32  22906400.613 1 120373946.524 3     -3491.790          36.000    22906418.859 8              16     -2720.918          29.000  
R 7  20271891.254 1 108517012.540 1     -2655.892          43.000    20271894.307 2  84402144.242 3     -2065.416          35.000  
R 8  21429817.495 1 114755724.564 2      1168.169          40.000    21429820.822 4               6       908.720          28.000  
R 9  23717620.417 9                     -3978.066          25.000                                                                  
R10  21844321.163 2 116442517.872 5     -3032.684          33.000    21316181.364 2  88376743.25224       745.865          34.000  
R11  22914544.963 2 122448376.691 3      -674.514          35.000    22914550.810 4               7      -525.069          28.000  
C19  25559316.625 1 133094073.942 4       804.148          35.000                                                                  
> 2024  1 10 15 44 15.0030000  0 13                     
G 3  23898305.392 1 125586433.529 3      -995.039          35.000    23898330.096 8               7      -775.116          28.000  
G 4  25730876.474 4               7      1946.742          30.000                                                                  
G16  21642182.062 1 113730442.615 3      -304.327          36.000                                                                  
G26  21302973.530 1 111947868.975 1     -2309.034          44.000    21302983.533 8               6     -1799.274          29.000  
G28  23279794.264 1 122336142.524 3     -2011.205          37.000    23279800.958 1  95326893.688 2     -1567.253          38.000  
G31  22715211.127 2 119369280.487 5     -1627.866          32.000    22715222.915 4                     -1268.817          23.000  
G32  22907065.234 1 120377438.724 4     -3492.754          36.000    22907083.341 8               6     -2721.644          29.000  
R 7  20272387.573 1 108519669.024 1     -2657.166          42.000    20272390.538 2  84404210.384 3     -2066.275          35.000  
R 8  21429599.256 1 114754556.788 2      1167.426          40.000    21429602.595 4                       907.805          27.000  
R 9  23718363.669 9                     -3977.438          25.000                                                                  
R10  21844889.996 2 116445549.788 5     -3032.098          33.000    21316001.475 2  88375997.66923       744.802          34.000  
R11  22914671.317 2 122449051.510 4      -674.842          35.000    22914677.082 4               7      -525.442          28.000  
C19  25559162.065 1 133093269.256 4       804.565          35.000                                                                  
> 2024  1 10 15 44 16.0030000  0 13                     
G 3  23898494.769 1 125587428.931 3      -995.621          35.000    23898518.760 8                      -775.642          27.000  
G 4  25730506.087 4               7      1946.262          30.000                                                                  
G16  21642239.820 1 113730747.681 3      -305.243          36.000                                                                  
G26  21303412.974 1 111950178.319 1     -2309.805          44.000    21303422.529 8               6     -1799.958          29.000  
G28  23280176.958 1 122338153.905 2     -2011.522          37.000    23280183.723 1  95328461.005 2     -1567.311          38.000  
G31  22715520.514 2 119370908.661 5     -1629.137          32.000    22715532.457 4                     -1268.673          23.000  
G32  22907729.977 1 120380931.671 4     -3493.915          35.000    22907748.425 8  93803383.131 5     -2721.894          29.000  
R 7  20272884.037 1 108522326.652 1     -2658.105          42.000    20272886.981 2  84406277.430 3     -2067.424          35.000  
R 8  21429381.308 1 114753389.934 2      1166.367          40.000    21429384.803 4                       906.937          27.000  
R 9  23719109.269 9                     -3979.804          24.000                                                                  
R10  21845458.919 2 116448582.181 5     -3032.190          32.000    21315821.901 2  88375252.80424       744.507          33.000  
R11  22914797.813 2 122449726.962 4      -675.656          35.000    22914803.679 4               6      -525.510          29.000  
C19  25559007.625 1 133092465.276 4       803.317          35.000                                                                  
> 2024  1 10 15 44 17.0030000  0 13                     
G 3  23898684.196 1 125588425.221 3      -997.128          35.000    23898709.265 8               7      -776.111          27.000  
G 4  25730135.805 4               7      1945.626          30.000                                                                  
G16  21642297.972 1 113731053.620 3      -305.841          36.000                                                                  
G26  21303852.527 1 111952488.396 1     -2310.426          44.000    21303862.117 8               6     -1799.970          29.000  
G28  23280559.740 1 122340165.614 3     -2011.451          36.000    23280566.521 1  95330028.588 3     -1567.954          38.000  
G31  22715829.891 2 119372537.068 5     -1628.621          32.000    22715841.841 8                     -1267.245          23.000  
G32  22908394.950 1 120384425.377 4     -3494.432          35.000    22908412.463 8  93806105.525 5     -2722.769          29.000  
R 7  20273380.746 1 108524985.482 2     -2659.367          42.000    20273383.571 2  84408345.385 4     -2068.204          35.000  
R 8  21429163.364 1 114752224.067 2      1165.503          39.000    21429166.964 4               7       906.366          26.000  
R 9  23719855.143 9                     -3976.791          24.000                                                                  
R10  21846027.814 2 116451615.063 5     -3032.794          31.000    21315642.400 2  88374508.73024       743.910          34.000  
R11  22914924.453 2 122450403.076 3      -676.296          36.000    22914930.063 4  95239230.571 5      -526.215          29.000  
C19  25558853.261 1 133091661.970 4       802.671          35.000                                                                  
> 2024  1 10 15 44 18.0030000  0 13                     
G 3  23898873.772 1 125589422.281 4      -997.358          35.000    23898898.313 8               7      -777.610          27.000  
G 4  25729765.568 2               7      1945.609          30.000                                                                  
G16  21642356.270 1 113731360.406 4      -307.709          36.000                                                                  
G26  21304292.234 1 111954799.114 1     -2311.035          44.000    21304302.291 8               6     -1801.124          29.000  
G28  23280942.588 1 122342177.580 3     -2012.231          36.000    23280949.436 1  95331596.327 2     -1567.578          38.000  
G31  22716139.697 2 119374165.774 4     -1628.833          33.000    22716151.200 8                     -1269.189          23.000  
G32  22909059.931 1 120387919.794 4     -3494.621          34.000    22909077.437 8  93808828.451 5     -2723.497          29.000  
R 7  20273877.616 1 108527645.389 2     -2660.438          42.000    20273880.370 2  84410414.239 3     -2069.686          35.000  
R 8  21428945.680 1 114751059.078 2      1164.742          39.000    21428949.301 4               7       905.885          26.000  
R 9  23720600.824 9                     -3978.156          23.000                                                                  
R10  21846596.788 2               6     -3032.940          31.000    21315463.120 2  88373765.37524       742.942          33.000  
R11  22915051.212 2 122451079.801 3      -677.076          35.000    22915056.752 4  95239756.888 5      -526.680          29.000  
C19  25558699.197 1 133090859.238 3       802.243          35.000                                                                  
> 2024  1 10 15 44 19.0030000  0 13                     
G 3  23899063.475 1 125590420.343 4      -998.593          35.000    23899087.415 8                      -778.565          27.000  
G 4  25729395.351 4               7      1946.748          30.000                                                                  
G16  21642414.692 1 113731668.082 3      -308.337          35.000                                                                  
G26  21304732.198 1 111957110.669 1     -2311.870          44.000    21304744.810 8               7     -1801.548          30.000  
G28  23281325.564 1 122344189.985 4     -2012.665          36.000    23281332.335 1  95333164.435 2     -1568.228          38.000  
G31  22716449.549 2 119375794.909 4     -1629.420          33.000    22716459.410 9                     -1269.308          23.000  
G32  22909725.230 1 120391415.107 4     -3495.726          34.000    22909742.080 8  93811552.044 5     -2723.948          29.000  
R 7  20274374.722 1 108530306.589 2     -2661.917          42.000    20274377.405 2  84412484.015 3     -2070.097          35.000  
R 8  21428728.202 1 114749895.217 2      1163.126          39.000    21428732.008 4                       905.394          26.000  
R 9  23721345.046 9                     -3979.955          23.000                                                                  
R10  21847165.956 4               7     -3035.028          30.000    21315284.222 2  88373022.90124       741.591          33.000  
R11  22915178.184 2 122451757.277 3      -677.964          35.000    22915183.747 4               6      -527.740          29.000  
C19  25558545.043 1 133090057.266 3       801.635          35.000                                                                  
> 2024  1 10 15 44 20.0030000  0 12                     
G 3  23899253.292 1 125591419.315 4      -999.064          35.000    23899278.036 8                      -778.743          27.000  
G 4  25729025.314 2               7      1945.214          29.000                                                                  
G16  21642473.246 1 113731976.795 3      -309.540          35.000                                                                  
G26  21305172.220 1 111959423.004 1     -2312.562          44.000    21305185.621 8               7     -1802.651          30.000  
G28  23281708.533 1 122346202.764 3     -2012.596          36.000    23281715.281 1  95334732.819 2     -1568.050          39.000  
G31  22716759.288 2 119377424.394 5     -1628.988          33.000    22716767.808 8                     -1269.528          23.000  
G32  22910390.632 2 120394911.264 5     -3496.581          33.000    22910407.310 8               6     -2724.116          28.000  
R 7  20274872.110 1 108532968.971 1     -2662.711          42.000    20274874.649 2  84414554.781 3     -2071.250          35.000  
R 8  21428510.925 1 114748732.354 2      1162.452          39.000    21428514.751 4                       904.632          25.000  
R10  21847735.138 4               7     -3034.466          30.000    21315105.282 2  88372281.18923       741.535          33.000  
R11  22915305.168 2 122452435.507 3      -678.536          35.000    22915310.643 4                      -527.701          30.000  
C19  25558391.203 1 133089256.050 4       801.100          35.000                                                                  
> 2024  1 10 15 44 21.0030000  0 12                     
G 3  23899443.379 1 125592419.124 3     -1000.035          35.000    23899469.150 8                      -779.766          27.000  
G 4  25728655.401 2               7      1945.458          29.000                                                                  
G16  21642531.958 1 113732286.232 3      -309.900          35.000                                                                  
G26  21305612.396 1 111961736.056 1     -2313.718          44.000    21305625.037 8               7     -1803.461          30.000  
G28  23282091.586 1 122348215.843 4     -2013.248          35.000    23282098.455 1  95336301.483 2     -1569.388          39.000  
G31  22717068.949 2 119379054.192 4     -1629.890          34.000    22717077.908 9                     -1271.235          22.000  
G32  22911056.068 2 120398408.140 5     -3497.329          33.000    22911072.868 8               6     -2725.464          28.000  
R 7  20275369.618 1 108535632.502 2     -2664.430          42.000    20275372.253 2  84416626.419 3     -2072.550          35.000  
R 8  21428293.783 2 114747570.439 2      1160.974          39.000    21428297.632 4                       902.943          25.000  
R10  21848304.289 4               7     -3034.663          29.000    21314926.412 2  88371540.28124       739.964          33.000  
R11  22915432.210 2 122453114.357 3      -679.273          36.000    22915437.666 4                      -528.451          30.000  
C19  25558237.327 1 133088455.469 4       800.193          35.000                                                                  
> 2024  1 10 15 44 22.0030000  0 12                     
G 3  23899633.667 1 125593419.851 4     -1000.735          35.000    23899657.821 8                      -780.727          27.000  
G 4  25728285.439 2 135203022.912 5      1944.412          29.000                                                                  
G16  21642590.874 1 113732596.627 4      -310.101          35.000                                                                  
G26  21306052.698 1 111964049.858 1     -2314.280          44.000    21306066.758 8               7     -1803.098          30.000  
G28  23282474.576 1 122350229.256 4     -2013.571          35.000    23282481.668 1  95337870.373 2     -1568.901          39.000  
G31  22717378.931 2 119380684.331 4     -1630.170          34.000    22717385.710 8                     -1270.285          23.000  
G32  22911721.644 2 120401905.831 5     -3497.787          32.000    22911737.589 8               7     -2725.722          28.000  
R 7  20275867.454 1 108538297.232 2     -2665.199          41.000    20275870.024 2  84418698.966 4     -2073.088          36.000  
R 8  21428076.909 2 114746409.536 2      1160.430          39.000    21428080.674 4                       901.745          25.000  
R10  21848873.696 4               6     -3035.358          29.000    21314747.856 2  88370800.14023       739.782          34.000  
R11  22915559.248 2 122453793.944 3      -680.048          35.000    22915564.989 4               7      -529.576          30.000  
C19  25558083.761 1 133087655.606 3       799.608          35.000                                                                  
> 2024  1 10 15 44 23.0030000  0 12                     
G 3  23899824.218 1 125594421.371 4     -1001.861          34.000    23899847.770 8                      -780.356          28.000  
G 4  25727915.558 2 135201078.268 5      1944.251          29.000                                                                  
G16  21642649.970 1 113732907.813 4      -311.646          35.000                                                                  
G26  21306493.138 1 111966364.269 1     -2314.564          44.000    21306504.479 8               7     -1803.407          30.000  
G28  23282857.737 1 122352242.909 3     -2013.339          35.000    23282864.871 1  95339439.430 2     -1568.785          38.000  
G31  22717689.226 1 119382314.726 3     -1630.791          35.000    22717694.777 8                     -1270.672          23.000  
G32  22912387.467 2 120405404.219 5     -3498.486          31.000    22912401.890 8               7     -2726.074          28.000  
R 7  20276365.452 1 108540963.061 2     -2666.253          41.000    20276367.979 2  84420772.359 4     -2073.435          35.000  
R 8  21427860.272 1 114745249.473 2      1159.573          39.000    21427863.744 4                       902.400          24.000  
R10  21849443.003 4               7     -3035.524          28.000    21314569.390 2  88370060.67424       739.462          34.000  
R11  22915686.654 2 122454474.073 3      -680.217          35.000    22915692.531 4               7      -529.815          31.000  
C19  25557930.345 1 133086856.303 4       799.126          35.000                                                                  
> 2024  1 10 15 44 24.0030000  0 12                     
G 3  23900014.751 1 125595423.583 4     -1002.475          34.000    23900038.000 8                      -781.273          27.000  
G 4  25727545.698 2 135199133.682 5      1944.238          29.000                                                                  
G16  21642709.115 1 113733219.710 4      -312.079          35.000                                                                  
G26  21306933.608 1 111968679.286 1     -2315.158          44.000    21306946.011 8               6     -1804.520          30.000  
G28  23283240.609 1 122354256.734 3     -2013.703          35.000    23283248.138 1  95341008.681 2     -1569.499          39.000  
G31  22717999.590 1 119383945.256 3     -1630.334          36.000    22718004.333 8                     -1268.894          23.000  
G32  22913053.337 2 120408903.278 5     -3499.455          30.000    22913067.567 8                     -2726.960          27.000  
R 7  20276863.470 1 108543629.947 2     -2667.358          41.000    20276866.245 2  84422846.631 4     -2074.748          36.000  
R 8  21427643.690 2 114744090.230 2      1158.839          38.000    21427647.119 4                       901.590          24.000  
R10  21850012.478 4                     -3036.781          27.000    21314391.131 2  88369321.92824       738.720          34.000  
R11  22915814.044 2 122455154.748 4      -681.060          35.000    22915820.050 4               7      -529.769          31.000  
C19  25557776.831 1 133086057.561 4       798.464          35.000                                                                  
> 2024  1 10 15 44 25.0030000  0 12                     
G 3  23900205.437 1 125596426.676 4     -1003.519          34.000    23900229.506 8               6      -782.221          27.000  
G 4  25727175.619 2               6      1944.163          29.000                                                                  
G16  21642768.436 1 113733532.477 4      -313.116          34.000                                                                  
G26  21307374.231 1 111970995.003 1     -2316.386          44.000    21307386.184 4               7     -1806.322          30.000  
G28  23283623.808 1 122356270.866 4     -2014.125          34.000    23283631.434 1  95342578.144 2     -1570.000          39.000  
G31  22718310.112 1 119385576.138 3     -1631.159          36.000    22718315.615 8                     -1270.359          24.000  
G32  22913719.215 2               7     -3501.061          30.000    22913733.477 8                     -2727.843          27.000  
R 7  20277361.913 1 108546298.003 2     -2668.558          41.000    20277364.627 2  84424921.780 3     -2076.043          36.000  
R 8  21427427.168 2 114742931.926 3      1157.757          38.000    21427430.762 4                       900.511          24.000  
R10  21850582.044 4                     -3035.934          26.000    21314213.065 2  88368583.90324       737.565          34.000  
R11  22915941.513 2 122455836.053 4      -682.230          35.000    22915947.518 4                      -529.799          30.000  
C19  25557623.572 1 133085259.454 3       797.229          35.000                                                                  
> 2024  1 10 15 44 26.0030000  0 12                     
G 3  23900396.385 1 125597430.444 4     -1003.554          34.000    23900419.215 8               7      -782.609          27.000  
G 4  25726805.780 2               6      1944.284          29.000                                                                  
G16  21642827.974 1 113733845.968 3      -313.782          34.000                                                                  
G26  21307815.053 1 111973311.311 1     -2316.486          44.000    21307827.106 4               7     -1804.470          30.000  
G28  23284006.903 1 122358285.183 3     -2013.689          34.000    23284014.805 1  95344147.728 2     -1569.588          39.000  
G31  22718620.812 1 119387207.152 3     -1630.869          36.000    22718625.978 8                     -1269.896          24.000  
G32  22914385.129 2               7     -3500.214          29.000    22914399.695 8                     -2728.264          27.000  
R 7  20277860.469 1 108548967.117 2     -2669.584          41.000    20277863.210 2  84426997.723 4     -2076.518          35.000  
R 8  21427210.977 2 114741774.434 2      1157.219          38.000    21427214.620 4                       900.034          23.000  
R10  21851150.836 9                     -3033.894          24.000    21314035.301 2  88367846.54324       737.589          33.000  
R11  22916069.182 2 122456517.829 3      -681.496          35.000    22916075.248 4               7      -530.058          31.000  
C19  25557470.421 1 133084461.880 3       796.967          35.000                                                                  
> 2024  1 10 15 44 27.0030000  0 13                     
G 3  23900587.273 2 125598435.038 4     -1004.816          34.000    23900611.600 8                      -783.524          27.000  
G 4  25726435.905 2               7      1944.277          28.000                                                                  
G16  21642887.592 1 113734160.273 4      -314.850          34.000                                                                  
G26  21308255.944 1 111975628.246 1     -2317.409          44.000    21308268.057 2               6     -1805.223          31.000  
G28  23284390.096 1 122360299.783 4     -2015.231          35.000    23284398.164 1  95345717.510 2     -1569.838          39.000  
G31  22718931.441 1 119388838.438 3     -1631.395          37.000    22718936.322 8                     -1271.169          24.000  
G32  22915051.155 2               7     -3501.217          29.000    22915065.405 8                     -2728.066          27.000  
R 7  20278359.295 1 108551637.290 2     -2670.776          41.000    20278362.065 2  84429074.512 4     -2076.989          36.000  
R 8  21426994.847 2 114740617.813 3      1155.973          38.000    21426997.940 8                       897.125          22.000  
R10  21851720.754 9                     -3031.783          22.000    21313857.372 2  88367109.91424       736.420          33.000  
R11  22916196.850 2 122457200.268 4      -683.077          35.000    22916203.123 4               7      -531.347          31.000  
E 5  23329802.312 9 122598938.545 3      -116.873          40.000                                                                  
C19  25557317.340 1 133083664.899 4       796.267          35.000                                                                  
> 2024  1 10 15 44 28.0030000  0 13                     
G 3  23900778.467 1 125599440.514 5     -1005.593          33.000    23900802.170 8               7      -784.355          27.000  
G 4  25726066.212 2               7      1943.282          28.000                                                                  
G16  21642947.415 1 113734475.447 4      -316.357          33.000                                                                  
G26  21308696.962 1 111977945.931 2     -2318.243          44.000    21308709.052 2               6     -1806.802          31.000  
G28  23284773.271 1 122362314.668 4     -2015.119          35.000    23284781.570 1  95347287.576 2     -1570.287          39.000  
G31  22719241.904 1 119390470.033 3     -1631.677          37.000    22719246.828 8                     -1272.646          24.000  
G32  22915717.541 2               7     -3502.451          28.000    22915731.067 8                     -2729.407          27.000  
R 7  20278858.293 1 108554308.649 2     -2672.210          41.000    20278860.984 2  84431152.255 3     -2078.241          36.000  
R 8  21426779.089 2 114739462.165 3      1154.905          38.000    21426781.037 9                       905.994          22.000  
R10  21852290.210 9                     -3037.214          20.000    21313680.073 4  88366374.06724       735.340          33.000  
R11  22916324.665 2 122457883.359 4      -683.714          34.000    22916331.162 4               6      -531.027          31.000  
E 5  23329825.539 8 122599055.493 2      -117.275          40.000                                                                  
C19  25557164.403 1 133082868.611 4       795.412          35.000                                                                  
> 2024  1 10 15 44 29.0030000  0 13                     
G 3  23900969.699 2 125600446.787 5     -1006.796          33.000    23900993.003 8               7      -784.203          27.000  
G 4  25725696.341 2               6      1943.376          28.000                                                                  
G16  21643007.454 1 113734791.413 4      -317.432          33.000                                                                  
G26  21309138.133 1 111980264.228 2     -2318.592          44.000    21309150.328 2               7     -1806.403          31.000  
G28  23285156.639 1 122364329.812 4     -2015.492          34.000    23285165.058 1  95348857.793 2     -1570.314          39.000  
G31  22719552.547 1 119392101.874 3     -1632.192          37.000    22719557.635 8                     -1271.677          25.000  
G32  22916383.060 8                     -3503.397          26.000    22916395.992 8                     -2730.009          26.000  
R 7  20279357.414 1 108556981.062 2     -2673.467          41.000    20279360.196 2  84433230.774 3     -2079.042          36.000  
R 8  21426563.210 2 114738307.379 3      1154.097          38.000    21426564.784 9                       903.179          21.000  
R10  21852862.030 9                     -3034.218          19.000    21313502.701 2  88365638.90524       734.675          33.000  
R11  22916452.576 2 122458566.996 4      -684.197          35.000    22916459.097 4               7      -531.967          30.000  
E 5  23329847.665 4 122599172.920 2      -117.500          40.000                                                                  
C19  25557011.463 1 133082072.876 5       795.131          35.000                                                                  
> 2024  1 10 15 44 30.0030000  0 13                     
G 3  23901161.188 2 125601453.745 5     -1007.071          33.000    23901183.322 8                      -784.738          27.000  
G 4  25725326.555 2               6      1943.257          28.000                                                                  
G16  21643067.613 2 113735108.096 5      -317.505          32.000                                                                  
G26  21309579.455 1 111982583.183 1     -2319.491          44.000    21309591.661 2               6     -1806.457          31.000  
G28  23285539.924 1 122366345.143 4     -2015.485          34.000    23285548.629 1  95350428.195 2     -1570.651          39.000  
G31  22719863.326 1 119393733.918 3     -1632.052          37.000    22719869.521 8                     -1272.377          25.000  
G32  22917050.289 9                     -3498.956          24.000    22917063.074 8                     -2729.905          26.000  
R 7  20279856.773 1 108559654.492 2     -2673.925          41.000    20279859.645 2  84435310.128 4     -2080.074          35.000  
R 8  21426347.637 2 114737153.512 2      1153.319          38.000    21426348.436 9                       899.959          20.000  
R10  21853432.295 9                     -3032.597          20.000    21313325.407 4  88364904.43125       734.007          33.000  
R11  22916580.571 2 122459251.237 3      -685.164          35.000    22916587.456 4               7      -533.159          30.000  
E 5  23329870.270 2 122599290.863 2      -118.434          40.000                                                                  
C19  25556858.650 1 133081277.716 4       794.765          34.000                                                                  
> 2024  1 10 15 44 31.0030000  0 14                     
G 3  23901352.762 2 125602461.605 5     -1008.443          32.000    23901373.666 8                      -786.019          27.000  
G 4  25724957.028 2               6      1943.264          28.000                                                                  
G16  21643127.785 2 113735425.677 5      -317.120          32.000                                                                  
G26  21310020.831 1 111984902.799 1     -2319.953          44.000    21310033.189 2               6     -1807.525          31.000  
G28  23285923.347 1 122368360.783 4     -2015.384          34.000    23285932.168 1  95351998.822 2     -1570.603          39.000  
G31  22720173.979 1 119395366.279 3     -1632.337          37.000    22720180.618 8                     -1271.402          25.000  
G32  22917719.538 9                     -3495.827          24.000    22917727.549 8                     -2730.559          26.000  
R 7  20280356.336 1 108562329.067 2     -2675.338          41.000    20280359.288 2  84437390.328 4     -2080.058          35.000  
R 8  21426132.203 2 114736000.590 3      1152.656          38.000    21426134.289 9                       902.071          20.000  
R 9  23730278.622 9                     -3981.702          24.000                                                                  
R10  21854002.922 9                     -3038.179          21.000    21313148.254 4  88364170.67124       733.976          33.000  
R11  22916708.669 2 122459936.055 3      -685.127          35.000    22916715.906 4               7      -533.195          30.000  
E 5  23329891.698 1 122599409.327 2      -118.874          40.000                                                                  
C19  25556706.075 1 133080483.196 4       794.412          34.000                                                                  
> 2024  1 10 15 44 32.0030000  0 14                     
G 3  23901544.654 2               6     -1008.809          32.000    23901564.720 8               7      -786.692          28.000  
G 4  25724587.543 2               6      1942.998          28.000                                                                  
G16  21643188.179 2               7      -318.634          31.000                                                                  
G26  21310462.398 1 111987223.118 2     -2320.600          44.000    21310474.666 2               6     -1807.723          31.000  
G28  23286306.876 1 122370376.749 4     -2016.271          34.000    23286315.715 1  95353569.685 2     -1571.058          39.000  
G31  22720484.614 1 119396998.902 3     -1633.087          36.000    22720492.502 8                     -1271.702          25.000  
G32  22918388.746 9                     -3505.079          24.000    22918395.086 8                     -2731.836          25.000  
R 7  20280856.190 1 108565004.809 2     -2676.678          41.000    20280859.164 2  84439471.476 4     -2081.777          35.000  
R 8  21425917.042 2 114734848.623 2      1151.493          38.000    21425917.914 9                       899.945          20.000  
R 9  23731025.717 9                     -3980.111          24.000                                                                  
R10  21854574.750 9                     -3038.151          24.000    21312971.352 4  88363437.74725       732.184          33.000  
R11  22916836.944 2 122460621.533 3      -685.971          35.000    22916844.187 4               7      -534.219          30.000  
E 5  23329913.624 1 122599528.328 2      -119.252          40.000                                                                  
C19  25556553.654 1 133079689.329 4       793.324          35.000                                                                  
> 2024  1 10 15 44 33.0030000  0 14                     
G 3  23901736.685 2 125604479.810 5     -1010.241          32.000    23901757.699 8               7      -786.480          28.000  
G 4  25724217.965 2               7      1942.636          27.000                                                                  
G16  21643248.778 2               6      -320.319          32.000                                                                  
G26  21310903.985 1 111989544.110 1     -2321.279          44.000    21310916.270 2               6     -1808.166          31.000  
G28  23286690.584 1 122372392.918 4     -2016.473          34.000    23286699.479 1  95355140.734 2     -1570.921          39.000  
G31  22720795.653 1 119398631.776 3     -1633.047          37.000    22720804.140 8                     -1272.769          25.000  
G32  22919058.248 9                     -3505.265          24.000    22919061.602 8                     -2730.129          25.000  
R 7  20281356.222 1 108567681.634 2     -2677.344          41.000    20281359.187 2  84441553.461 4     -2082.373          35.000  
R 8  21425702.003 2 114733697.537 3      1150.427          38.000    21425703.087 9                       896.853          20.000  
R 9  23731768.513 9                     -3981.700          24.000                                                                  
R10  21855144.998 9                     -3038.634          26.000    21312794.648 2  88362705.46624       732.227          33.000  
R11  22916965.230 2 122461307.593 3      -686.146          36.000    22916972.739 4               6      -533.549          30.000  
E 5  23329935.872 1 122599647.833 2      -119.511          40.000                                                                  
C19  25556401.226 1 133078896.032 4       793.401          35.000                                                                  
> 2024  1 10 15 44 34.0030000  0 14                     
G 3  23901928.769 2 125605490.012 5     -1010.611          32.000    23901949.961 8               7      -787.704          28.000  
G 4  25723848.492 2               7      1942.701          28.000                                                                  
G16  21643309.693 2               6      -320.111          31.000                                                                  
G26  21311345.842 1 111991865.670 1     -2321.894          44.000    21311357.998 2               6     -1809.574          32.000  
G28  23287074.300 1 122374409.296 4     -2016.507          34.000    23287083.254 1  95356711.930 2     -1571.210          39.000  
G31  22721106.477 1 119400264.851 3     -1633.313          37.000    22721115.991 8                     -1272.964          25.000  
G32  22919731.747 9                     -3506.472          24.000    22919729.325 8                     -2731.493          25.000  
R 7  20281856.436 1 108570359.512 2     -2678.362          41.000    20281859.436 2  84443636.238 3     -2082.942          35.000  
R 8  21425487.026 2 114732547.201 3      1150.129          37.000    21425488.199 9                       895.953          21.000  
R 9  23732511.403 9                     -3977.315          24.000                                                                  
R10  21855717.725 8               7     -3039.558          27.000    21312618.022 2  88361973.86725       732.069          33.000  
R11  22917093.679 2 122461994.209 3      -686.873          36.000    22917101.076 4               7      -533.773          30.000  
E 5  23329958.675 1 122599767.807 2      -120.210          40.000                                                                  
C19  25556248.963 1 133078103.346 4       792.514          35.000                                                                  
> 2024  1 10 15 44 35.0030000  0 14                     
G 3  23902121.073 2 125606500.903 5     -1011.075          32.000    23902142.476 8               6      -787.878          28.000  
G 4  25723478.633 2               6      1942.111          27.000                                                                  
G16  21643370.626 4                      -319.405          30.000                                                                  
G26  21311787.699 1 111994187.783 2     -2322.321          44.000    21311799.865 2  87268246.438 5     -1809.728          31.000  
G28  23287457.993 1 122376425.825 4     -2016.806          35.000    23287467.067 1  95358283.263 2     -1571.450          39.000  
G31  22721417.370 1 119401898.053 3     -1633.177          37.000    22721428.598 8                     -1273.280          24.000  
G32  22920405.149 9                     -3506.880          25.000    22920396.244 8                     -2733.793          25.000  
R 7  20282356.838 1 108573038.361 2     -2679.074          41.000    20282359.923 2  84445719.799 3     -2083.782          35.000  
R 8  21425272.299 2 114731397.667 2      1148.923          37.000    21425273.613 9                       891.025          21.000  
R 9  23733257.008 9                     -3979.820          24.000                                                                  
R10  21856290.754 8               7     -3040.059          27.000    21312441.647 2  88361242.93624       730.444          33.000  
R11  22917222.486 2 122462681.333 3      -687.443          36.000    22917229.834 4               7      -535.173          30.000  
E 5  23329981.124 1 122599888.171 2      -120.606          40.000                                                                  
C19  25556096.768 1 133077311.122 4       792.104          34.000                                                                  
> 2024  1 10 15 44 36.0030000  0 14                     
G 3  23902313.650 1 125607512.731 4     -1011.522          33.000    23902333.998 8               7      -788.642          27.000  
G 4  25723109.074 2               6      1941.708          28.000                                                                  
G16  21643431.675 4                      -321.822          29.000                                                                  
G26  21312229.748 1 111996510.692 1     -2323.151          43.000    21312241.883 2  87270056.483 5     -1810.025          32.000  
G28  23287841.749 1 122378442.734 4     -2016.845          35.000    23287850.864 1  95359854.868 2     -1571.675          39.000  
G31  22721728.330 1 119403531.639 3     -1633.894          37.000    22721740.490 9                     -1273.857          23.000  
G32  22921076.648 9                     -3509.004          26.000    22921063.739 9                     -2730.009          25.000  
R 7  20282857.540 1 108575718.484 2     -2680.766          41.000    20282860.628 2  84447804.334 3     -2084.938          35.000  
R 8  21425057.681 2 114730249.124 2      1148.235          37.000    21425058.704 9                       890.221          21.000  
R 9  23734002.246 9                     -3980.833          25.000                                                                  
R10  21856861.573 8               7     -3040.865          27.000    21312265.399 4  88360512.76625       730.769          32.000  
R11  22917351.473 2 122463369.143 3      -687.590          37.000    22917358.513 4                      -534.067          30.000  
E 5  23330003.959 1 122600009.181 2      -121.270          40.000                                                                  
C19  25555944.732 1 133076519.608 4       791.096          34.000                                                                  
> 2024  1 10 15 44 37.0030000  0 14                     
G 3  23902506.491 2 125608525.300 5     -1012.945          32.000    23902525.774 8                      -789.454          26.000  
G 4  25722739.515 2               7      1942.446          28.000                                                                  
G16  21643493.229 4                      -322.735          28.000                                                                  
G26  21312671.910 1 111998834.170 1     -2323.965          43.000    21312684.019 2  87271866.989 5     -1810.897          32.000  
G28  23288225.527 1 122380459.832 4     -2017.317          34.000    23288234.640 1  95361426.612 2     -1572.183          39.000  
G31  22722039.235 1 119405165.378 3     -1633.779          37.000    22722052.010 9                     -1273.388          22.000  
G32  22921746.706 9                     -3508.575          26.000    22921731.088 8                     -2734.499          24.000  
R 7  20283358.384 1 108578399.621 2     -2682.228          41.000    20283361.614 2  84449889.664 3     -2086.299          35.000  
R 8  21424843.387 2 114729101.429 2      1146.858          38.000    21424843.290 9                       885.337          20.000  
R 9  23734748.323 9               7     -3980.416          26.000                                                                  
R10  21857433.520 8               7     -3040.436          27.000    21312089.399 4  88359783.35725       727.809          33.000  
R11  22917480.523 2 122464057.506 3      -689.029          37.000    22917487.305 4               6      -535.517          31.000  
E 5  23330026.884 1 122600130.603 2      -121.927          40.000                                                                  
C19  25555792.904 1 133075728.645 4       790.581          34.000                                                                  
> 2024  1 10 15 44 38.0030000  0 14                     
G 3  23902699.297 2 125609538.683 5     -1013.997          32.000    23902717.779 8                      -790.257          26.000  
G 4  25722370.074 2               7      1941.805          28.000                                                                  
G16  21643554.685 2                      -323.735          27.000                                                                  
G26  21313114.200 1 112001158.295 2     -2324.057          43.000    21313126.208 2  87273678.008 5     -1810.903          32.000  
G28  23288609.266 1 122382477.137 4     -2017.135          34.000    23288618.483 1  95362998.563 2     -1572.059          39.000  
G31  22722350.352 1 119406799.398 4     -1633.792          37.000    22722366.338 9                     -1296.330          21.000  
G32  22922415.648 8               7     -3510.034          26.000    22922398.475 9                     -2735.477          23.000  
R 7  20283859.422 1 108581081.811 2     -2682.643          41.000    20283862.447 2  84451975.804 4     -2086.124          36.000  
R 8  21424629.141 2 114727954.640 2      1146.490          38.000                                                                  
R 9  23735494.358 8               7     -3980.885          27.000                                                                  
R10  21858004.696 8                     -3040.545          27.000    21311913.767 4  88359054.58325       728.536          32.000  
R11  22917609.668 2 122464746.424 3      -689.221          38.000    22917616.396 4  95250386.485 5      -536.102          32.000  
E 5  23330049.667 1 122600252.534 2      -122.269          40.000                                                                  
C19  25555641.121 1 133074938.288 4       789.784          34.000                                                                  
> 2024  1 10 15 44 39.0030000  0 14                     
G 3  23902892.231 2 125610552.595 5     -1014.078          31.000    23902910.633 8                      -789.917          26.000  
G 4  25722000.311 2                      1942.422          27.000                                                                  
G16  21643616.405 2                      -323.551          27.000                                                                  
G26  21313556.524 1 112003482.851 1     -2324.721          43.000    21313568.457 2               6     -1811.758          32.000  
G28  23288993.205 1 122384494.514 3     -2017.844          35.000    23289002.406 1  95364570.513 2     -1571.920          39.000  
G31  22722661.415 1 119408433.430 3     -1633.966          36.000    22722678.589 9                     -1275.450          21.000  
G32  22923082.184 8               6     -3509.475          28.000    22923064.978 9                     -2732.527          23.000  
R 7  20284360.711 1 108583764.880 2     -2683.329          41.000    20284363.833 2  84454062.664 3     -2087.128          36.000  
R 8  21424415.081 2 114726808.529 3      1146.009          38.000                                                                  
R 9  23736243.793 9               7     -3980.074          27.000                                                                  
R10  21858576.676 8               7     -3041.400          28.000    21311737.990 4  88358326.40025       727.124          32.000  
R11  22917738.794 2 122465435.700 3      -689.321          37.000    22917745.683 4  95250922.602 5      -535.828          32.000  
E 5  23330072.645 1 122600374.731 2      -122.206          40.000                                                                  
C19  25555489.410 1 133074148.296 4       789.907          34.000                                                                  
> 2024  1 10 15 44 40.0030000  0 14                     
G 3  23903084.970 2               6     -1014.795          31.000    23903104.267 8                      -790.427          26.000  
G 4  25721630.580 2                      1942.137          27.000                                                                  
G16  21643678.271 2                      -325.537          26.000                                                                  
G26  21313998.929 1 112005807.762 2     -2325.481          42.000    21314010.765 2  87277300.956 5     -1812.042          32.000  
G28  23289377.161 1 122386511.821 3     -2017.533          34.000    23289386.285 1  95366142.453 2     -1572.038          39.000  
G31  22722972.444 1 119410067.418 3     -1634.309          36.000    22722987.903 9                     -1273.340          21.000  
G32  22923743.652 8                     -3510.210          28.000    22923732.058 9                     -2740.043          23.000  
R 7  20284862.014 1 108586448.782 2     -2684.597          41.000    20284865.361 2  84456150.138 3     -2088.397          36.000  
R 8  21424201.223 2 114725663.017 3      1144.741          38.000    21424200.531 9                       899.980          18.000  
R 9  23736990.874 9               7     -3980.135          27.000                                                                  
R10  21859145.572 9               7     -3040.679          29.000    21311562.121 4  88357598.66625       726.755          32.000  
R11  22917868.070 2 122466125.300 3      -690.268          37.000    22917874.679 4  95251458.956 5      -537.174          31.000  
E 5  23330096.095 1 122600497.157 2      -122.883          40.000                                                                  
C19  25555337.732 1 133073358.659 4       788.811          35.000                                                                  
> 2024  1 10 15 44 41.0030000  0 14                     
G 3  23903278.211 2 125612582.296 5     -1015.508          32.000    23903297.919 8                      -791.283          27.000  
G 4  25721260.961 2                      1942.435          27.000                                                                  
G16  21643740.138 2                      -324.955          26.000                                                                  
G26  21314441.370 1 112008133.338 2     -2325.800          42.000    21314453.274 2  87279113.089 5     -1812.237          33.000  
G28  23289760.862 1 122388529.412 4     -2017.642          34.000    23289770.240 1  95367714.594 2     -1572.395          39.000  
G31  22723283.615 1 119411701.657 3     -1634.541          36.000    22723299.972 9                     -1279.577          21.000  
G32  22924407.842 8                     -3511.248          27.000    22924399.217 9                     -2737.874          22.000  
R 7  20285363.638 1 108589133.829 2     -2685.587          41.000    20285366.962 2  84458238.495 3     -2088.979          36.000  
R 8  21423987.431 2 114724518.357 3      1144.065          38.000    21423985.889 9                       901.578          18.000  
R 9  23737735.610 8                     -3979.922          27.000                                                                  
R10  21859717.902 8               7     -3041.562          29.000    21311386.719 4  88356871.66525       726.084          32.000  
R11  22917997.484 2 122466815.490 3      -690.403          37.000    22918003.782 4               6      -536.552          32.000  
E 5  23330119.334 1 122600620.094 2      -123.279          40.000                                                                  
C19  25555186.016 1 133072569.565 4       788.953          34.000                                                                  
> 2024  1 10 15 44 42.0030000  0 14                     
G 3  23903471.434 2               6     -1016.009          31.000    23903490.462 8               7      -791.491          27.000  
G 4  25720891.336 2                      1940.704          26.000                                                                  
G16  21643802.440 2                      -324.970          27.000                                                                  
G26  21314883.976 1 112010459.510 1     -2326.410          42.000    21314895.855 2  87280925.703 5     -1812.799          33.000  
G28  23290144.689 1 122390547.173 4     -2018.070          34.000    23290154.297 1  95369286.848 2     -1572.140          39.000  
G31  22723594.785 1 119413336.056 3     -1634.611          36.000    22723611.201 9                     -1271.988          21.000  
G32  22925070.518 8               7     -3511.541          28.000    22925067.360 9                     -2730.877          22.000  
R 7  20285865.322 1 108591819.875 2     -2686.282          42.000    20285868.739 2  84460327.639 3     -2089.357          36.000  
R 8  21423773.852 2 114723374.543 3      1143.153          37.000    21423770.812 9                       887.911          17.000  
R 9  23738479.581 8               7     -3980.042          28.000                                                                  
R10  21860286.468 8               7     -3041.578          29.000    21311211.460 4               6       725.847          32.000  
R11  22918127.033 2 122467506.235 3      -690.985          36.000    22918133.050 4  95252532.982 5      -536.910          32.000  
E 5  23330142.596 1 122600743.431 2      -123.227          40.000                                                                  
C19  25555034.516 1 133071781.069 4       788.160          34.000                                                                  
> 2024  1 10 15 44 43.0030000  0 14                     
G 3  23903664.746 4               7     -1017.404          30.000    23903684.581 8               7      -792.725          27.000  
G 4  25720521.730 2                      1941.896          25.000                                                                  
G16  21643864.683 2                      -326.571          26.000                                                                  
G26  21315326.680 1 112012786.265 2     -2327.440          42.000    21315338.495 2  87282738.703 4     -1812.904          33.000  
G28  23290528.694 1 122392565.141 4     -2018.886          33.000    23290538.212 1  95370859.293 2     -1572.884          39.000  
G31  22723906.096 1 119414970.675 3     -1635.336          36.000    22723922.363 9                     -1273.601          22.000  
G32  22925736.371 4               7     -3512.341          27.000    22925734.915 9                     -2733.197          20.000  
R 7  20286367.172 1 108594506.963 2     -2687.828          42.000    20286370.781 2  84462417.597 3     -2090.788          37.000  
R 8  21423560.418 2 114722231.543 3      1142.338          37.000    21423556.833 9                       887.172          17.000  
R 9  23739224.247 8               7     -3980.122          28.000                                                                  
R10  21860852.675 8               6     -3041.895          29.000    21311036.286 4               6       725.017          32.000  
R11  22918256.493 2 122468197.472 3      -691.157          36.000    22918262.420 4  95253070.603 5      -537.760          32.000  
E 5  23330165.781 1 122600867.236 2      -124.047          40.000                                                                  
C19  25554883.110 1 133070993.070 4       787.272          34.000                                                                  
> 2024  1 10 15 44 44.0030000  0 14                     
G 3  23903851.657 8               7     -1017.673          28.000    23903877.708 8               7      -793.257          28.000  
G 4  25720152.278 2                      1941.414          25.000    25720172.622 9                      1510.939          25.000  
G16  21643927.623 4                      -328.110          26.000                                                                  
G26  21315769.451 1 112015113.448 2     -2327.595          42.000    21315781.256 2  87284552.104 5     -1813.886          33.000  
G28  23290912.664 1 122394583.094 4     -2017.972          34.000    23290922.165 1  95372431.749 2     -1572.980          39.000  
G31  22724217.259 1 119416605.293 4     -1634.782          34.000    22724233.912 9                     -1265.457          23.000  
G32  22926405.602 8                     -3513.135          27.000    22926402.484 9                     -2738.505          18.000  
R 7  20286869.266 1 108597194.888 2     -2688.550          40.000    20286872.955 2  84464508.190 3     -2090.907          37.000  
R 8  21423346.940 2 114721089.269 3      1141.617          37.000    21423345.548 9                       893.453          17.000  
R 9  23739969.842 9                     -3979.377          27.000                                                                  
R10  21861421.350 8 116533675.16615     -3041.936          29.000    21310861.201 4  88354694.45125       724.895          33.000  
R11  22918385.966 2 122468889.096 4      -691.922          35.000    22918391.862 4  95253608.526 5      -537.881          33.000  
E 5  23330189.354 1 122600991.344 2      -124.503          39.000                                                                  
C19  25554731.865 1 133070205.473 5       786.929          34.000                                                                  
> 2024  1 10 15 44 45.0030000  0 14                     
G 3  23904039.416 8               7     -1018.502          28.000    23904074.020 8               7      -793.964          30.000  
G 4  25719782.836 4                      1941.630          25.000    25719803.832 9                      1512.630          25.000  
G16  21643990.601 4                      -328.548          25.000                                                                  
G26  21316212.464 1 112017441.402 2     -2328.231          42.000    21316224.125 2  87286366.094 5     -1814.341          33.000  
G28  23291296.660 1 122396601.499 4     -2018.634          35.000    23291306.220 1  95374004.482 2     -1572.777          39.000  
G31  22724528.442 2 119418240.288 5     -1635.403          32.000    22724546.169 9                     -1285.839          23.000  
G32  22927071.257 8                     -3513.707          26.000    22927070.044 9                     -2743.995          21.000  
R 7  20287371.460 1 108599884.049 2     -2689.417          40.000    20287375.374 2  84466599.776 3     -2092.006          36.000  
R 8  21423133.665 2 114719947.979 4      1141.612          36.000    21423132.014 9                       886.558          18.000  
R 9  23740714.278 9                     -3980.750          27.000                                                                  
R10  21861993.220 8               6     -3042.937          29.000    21310686.384 4  88353970.21024       723.479          33.000  
R11  22918515.492 2 122469581.395 5      -692.509          34.000    22918521.427 4  95254147.001 5      -538.954          33.000  
E 5  23330213.316 1 122601116.089 2      -124.664          40.000                                                                  
C19  25554580.607 1 133069418.588 4       786.763          34.000                                                                  
> 2024  1 10 15 44 46.0030000  0 14                     
G 3  23904226.856 8                     -1018.863          27.000    23904267.457 8               6      -792.869          30.000  
G 4  25719413.192 4                      1941.680          24.000    25719434.183 8                      1513.422          24.000  
G16  21644053.811 4                      -328.587          26.000                                                                  
G26  21316655.476 1 112019769.610 2     -2328.351          42.000    21316667.153 2  87288180.276 5     -1813.904          32.000  
G28  23291680.609 1 122398619.696 4     -2018.391          35.000    23291690.280 1  95375577.092 2     -1572.334          38.000  
G31  22724839.409 2 119419875.058 5     -1634.527          31.000    22724858.106 9                     -1277.486          22.000  
G32  22927740.028 8                     -3514.041          25.000    22927738.920 9                     -2737.848          21.000  
R 7  20287873.911 1 108602573.889 2     -2690.075          40.000    20287877.926 2  84468691.896 3     -2092.395          36.000  
R 8  21422920.589 2 114718807.183 4      1140.986          36.000    21422917.998 9                       897.025          19.000  
R 9  23741460.022 9                     -3980.199          26.000                                                                  
R10  21862564.663 8 116539760.210 5     -3042.603          31.000    21310511.638 4  88353246.28224       723.739          33.000  
R11  22918644.865 2 122470273.951 5      -692.092          32.000    22918651.216 4  95254685.627 5      -538.649          33.000  
E 5  23330236.982 1 122601240.947 2      -125.099          40.000                                                                  
C19  25554429.428 1 133068631.978 4       786.532          35.000                                                                  
> 2024  1 10 15 44 47.0030000  0 14                     
G 3  23904416.910 8                     -1019.397          27.000    23904460.611 8               7      -793.685          31.000  
G 4  25719043.841 4                      1940.811          24.000    25719065.026 8                      1512.525          25.000  
G16  21644116.930 4                      -328.409          24.000                                                                  
G26  21317098.596 1 112022098.334 2     -2329.226          42.000    21317110.227 2               6     -1815.462          32.000  
G28  23292064.610 1 122400637.990 3     -2018.298          35.000    23292074.422 1  95377149.814 2     -1573.092          39.000  
G31  22725150.133 2               7     -1633.741          32.000    22725170.699 9                     -1270.406          23.000  
G32  22928406.105 8                     -3514.470          24.000    22928407.758 9                     -2743.660          21.000  
R 7  20288376.568 1 108605264.716 2     -2691.654          41.000    20288380.717 2  84470784.728 3     -2093.241          36.000  
R 8  21422707.694 2 114717667.169 3      1139.252          35.000    21422702.630 9                       889.580          18.000  
R 9  23742203.961 8                     -3979.627          25.000                                                                  
R10  21863135.218 8               6     -3042.346          31.000    21310336.870 4  88352522.96125       723.237          33.000  
R11  22918774.344 4 122470966.915 5      -693.069          31.000    22918780.931 4               6      -539.783          33.000  
E 5  23330260.869 1 122601366.133 2      -125.398          40.000                                                                  
C19  25554278.281 1 133067845.737 3       785.988          35.000                                                                  
> 2024  1 10 15 44 48.0030000  0 13                     
G 3  23904609.978 8               7     -1020.239          28.000    23904653.856 8               6      -796.812          31.000  
G 4  25718674.607 4                      1941.076          25.000    25718696.044 8                      1512.414          25.000  
G26  21317541.883 1 112024427.552 1     -2329.690          42.000    21317553.388 2  87291809.810 5     -1814.841          32.000  
G28  23292448.853 1 122402656.416 3     -2018.386          35.000    23292458.544 1  95378722.617 2     -1572.983          39.000  
G31  22725460.982 2 119423145.076 5     -1635.588          32.000    22725481.508 9                     -1272.324          24.000  
G32  22929074.246 4                     -3515.536          25.000    22929073.972 9                     -2749.007          20.000  
R 7  20288879.246 1 108607956.513 2     -2692.651          41.000    20288883.544 2  84472878.367 3     -2094.341          36.000  
R 8  21422494.796 2 114716527.832 3      1138.669          36.000    21422489.727 9                       889.033          19.000  
R 9  23742947.923 9                     -3980.097          25.000                                                                  
R10  21863705.968 4               6     -3043.243          31.000    21310162.287 4  88351800.26025       722.551          32.000  
R11  22918903.823 4               6      -694.219          30.000    22918910.727 4  95255763.890 5      -539.782          33.000  
E 5  23330284.693 1 122601491.702 2      -125.808          40.000                                                                  
C19  25554127.297 1 133067059.974 4       785.899          35.000                                                                  
> 2024  1 10 15 44 49.0030000  0 13                     
G 3  23904802.464 8               7     -1021.494          27.000    23904849.233 4               6      -795.662          31.000  
G 4  25718305.056 4                      1941.409          25.000    25718327.965 8                      1511.787          24.000  
G26  21317985.279 1 112026757.343 2     -2329.911          42.000    21317996.625 2  87293625.247 5     -1815.767          33.000  
G28  23292833.131 1 122404675.030 4     -2019.119          35.000    23292842.704 1  95380295.512 2     -1572.727          39.000  
G31  22725772.022 2 119424780.214 5     -1634.548          32.000    22725791.213 9                     -1276.317          24.000  
G32  22929742.939 4                     -3516.189          26.000    22929742.186 9                     -2739.377          21.000  
R 7  20289382.195 1 108610649.290 2     -2693.242          41.000    20289386.561 2  84474972.708 3     -2094.176          36.000  
R 8  21422282.017 2 114715389.245 4      1138.639          35.000    21422278.621 9                       883.844          19.000  
R 9  23743694.418 9                     -3978.822          24.000                                                                  
R10  21864277.087 4 116548888.967 5     -3043.207          31.000    21309987.786 4  88351078.22125       722.117          32.000  
R11  22919033.268 4               6      -693.443          32.000    22919040.791 4  95256303.586 5      -539.742          33.000  
E 5  23330308.718 1 122601617.670 2      -126.099          40.000                                                                  
C19  25553976.444 1 133066274.745 4       785.170          35.000                                                                  
> 2024  1 10 15 44 50.0030000  0 14                     
G 3  23904995.842 4                     -1020.798          26.000    23905043.695 4  97887220.01815      -795.550          31.000  
G 4  25717935.417 4                      1941.295          25.000    25717957.609 8                      1514.151          25.000  
G16  21644326.322 9                      -332.577          25.000                                                                  
G26  21318428.687 1 112029087.615 2     -2330.562          42.000    21318439.975 2               6     -1814.950          33.000  
G28  23293217.395 1 122406693.736 4     -2019.164          35.000    23293226.915 1  95381868.506 2     -1572.989          39.000  
G31  22726082.931 2 119426415.506 5     -1634.275          31.000    22726102.972 9                     -1275.829          24.000  
G32  22930412.352 4                     -3513.455          25.000    22930411.403 9                     -2741.181          21.000  
R 7  20289885.342 1 108613343.041 2     -2694.376          41.000    20289889.727 2  84477067.854 3     -2095.031          36.000  
R 8  21422069.653 2 114714251.418 4      1137.492          34.000    21422067.874 9                       880.449          20.000  
R 9  23744442.557 9                     -3978.529          23.000                                                                  
R10  21864848.114 4               6     -3043.372          30.000    21309813.370 4  88350356.78725       721.046          32.000  
R11  22919162.901 4               7      -694.055          31.000    22919170.894 4  95256843.642 4      -540.489          34.000  
E 5  23330332.574 1 122601743.967 2      -126.308          39.000                                                                  
C19  25553825.673 1 133065489.985 4       784.624          35.000                                                                  
> 2024  1 10 15 44 51.0030000  0 14                     
G 3  23905189.059 8                     -1022.693          26.000    23905238.357 4  97888016.429 5      -796.984          32.000  
G 4  25717565.911 4                      1941.240          26.000    25717587.262 8                      1511.996          24.000  
G16  21644390.308 9                      -332.577          25.000                                                                  
G26  21318872.266 1 112031418.520 1     -2331.546          42.000    21318883.425 2  87297257.302 5     -1817.023          32.000  
G28  23293601.516 1 122408712.639 3     -2019.469          35.000    23293611.170 1  95383441.692 2     -1573.330          39.000  
G31  22726393.688 2 119428051.107 5     -1636.059          31.000    22726414.628 9                     -1276.003          25.000  
G32  22931082.652 9                     -3515.011          22.000    22931080.089 9                     -2743.691          21.000  
R 7  20290388.718 1 108616037.875 2     -2695.609          41.000    20290393.178 2  84479163.843 3     -2096.558          36.000  
R 8  21421857.473 2 114713114.520 4      1136.425          34.000    21421854.125 9                       879.498          21.000  
R 9  23745190.646 9                     -3980.147          23.000                                                                  
R10  21865419.290 4                     -3043.953          30.000    21309639.423 2  88349636.02225       720.269          33.000  
R11  22919292.688 4               6      -695.413          30.000    22919301.058 4  95257384.108 4      -540.479          33.000  
E 5  23330356.713 1 122601870.788 2      -127.374          39.000                                                                  
C19  25553674.994 1 133064705.771 3       783.715          35.000                                                                  
> 2024  1 10 15 44 52.0030000  0 13                     
G 3  23905386.131 8                     -1022.695          27.000    23905432.685 4  97888813.301 5      -796.233          32.000  
G 4  25717196.691 2                      1941.014          26.000    25717216.896 8                      1511.465          25.000  
G26  21319315.991 1 112033749.935 1     -2331.740          42.000    21319327.132 2  87299074.002 5     -1817.056          32.000  
G28  23293985.576 1 122410731.714 4     -2020.110          34.000    23293995.361 1  95385014.947 2     -1572.903          39.000  
G31  22726704.440 2               6     -1635.552          31.000    22726726.578 9                     -1285.089          25.000  
G32  22931754.832 9                     -3525.502          19.000    22931748.214 9                     -2738.375          22.000  
R 7  20290892.361 1 108618733.640 2     -2696.080          41.000    20290896.778 2  84481260.547 3     -2096.555          36.000  
R 8  21421645.403 2 114711978.364 4      1135.507          34.000    21421641.376 9                       886.771          21.000  
R 9  23745936.208 9                     -3979.229          24.000                                                                  
R10  21865990.302 4               6     -3043.604          30.000    21309465.638 2  88348915.90425       719.545          32.000  
R11  22919422.611 4               6      -695.352          32.000    22919431.214 4  95257924.956 4      -540.977          33.000  
E 5  23330381.311 1 122601997.975 2      -127.424          39.000                                                                  
C19  25553524.311 1 133063922.017 3       783.748          35.000                                                                  
> 2024  1 10 15 44 53.0030000  0 13                     
G 3  23905582.409 8                     -1023.406          27.000    23905627.450 4  97889610.777 5      -797.759          32.000  
G 4  25716827.399 2                      1941.279          26.000    25716847.456 8                      1512.500          25.000  
G26  21319759.769 1 112036081.900 2     -2332.362          42.000    21319770.803 2  87300891.114 5     -1817.468          33.000  
G28  23294369.726 2 122412750.847 5     -2018.874          33.000    23294379.621 1  95386588.368 2     -1573.686          39.000  
G31  22727015.329 2               7     -1636.325          31.000    22727037.499 8                     -1275.625          24.000  
G32  22932426.901 9                     -3515.520          17.000    22932416.920 9                     -2738.258          22.000  
R 7  20291396.125 1 108621430.402 2     -2697.348          40.000    20291400.526 2  84483358.059 3     -2098.306          35.000  
R 8  21421433.552 2 114710842.981 3      1134.725          35.000    21421430.730 9                       887.436          21.000  
R 9  23746682.986 9                     -3979.065          25.000                                                                  
R10  21866561.517 4               7     -3045.129          29.000    21309291.801 4  88348196.39425       719.473          33.000  
R11  22919552.552 4 122475134.651 5      -696.499          33.000    22919561.569 4  95258466.188 4      -541.685          33.000  
E 5  23330405.620 1 122602125.573 2      -127.989          40.000                                                                  
C19  25553373.779 1 133063138.772 4       783.232          35.000                                                                  
> 2024  1 10 15 44 54.0030000  0 14                     
G 3  23905775.275 8                     -1025.376          26.000    23905822.201 2  97890408.851 4      -798.211          32.000  
G 4  25716458.181 2                      1941.201          26.000    25716478.060 8                      1512.333          25.000  
G16  21644595.253 9                      -330.380          24.000                                                                  
G26  21320203.765 1 112038414.530 2     -2333.182          42.000    21320214.611 2  87302708.775 5     -1818.423          33.000  
G28  23294754.111 1 122414770.285 4     -2019.878          34.000    23294763.923 1  95388161.898 2     -1573.521          39.000  
G31  22727326.196 4               7     -1635.409          31.000    22727349.228 8                     -1275.231          23.000  
G32  22933098.642 9                     -3519.335          20.000    22933085.456 9                     -2744.097          22.000  
R 7  20291899.986 1 108624128.218 2     -2698.387          40.000    20291904.454 2  84485456.330 3     -2098.914          35.000  
R 8  21421221.786 2 114709708.440 3      1133.686          36.000    21421218.071 9                       884.379          22.000  
R 9  23747430.175 9                     -3979.773          26.000    23747443.731 9                     -3095.953          17.000  
R10  21867132.847 4               7     -3044.525          30.000    21309118.213 4  88347477.64825       717.920          34.000  
R11  22919682.652 4 122475831.059 5      -696.317          33.000    22919692.039 4  95259007.825 5      -541.750          33.000  
E 5  23330429.912 1 122602253.655 2      -128.560          40.000                                                                  
C19  25553223.379 1 133062356.145 4       782.166          35.000                                                                  
> 2024  1 10 15 44 55.0030000  0 13                     
G 3  23905968.384 9                     -1022.703          24.000    23906017.115 2  97891207.414 5      -799.310          32.000  
G 4  25716088.929 2                      1941.166          27.000    25716109.258 8                      1513.070          25.000  
G26  21320647.800 1 112040747.594 2     -2333.154          42.000    21320658.501 2  87304526.719 5     -1817.175          33.000  
G28  23295138.417 1 122416789.767 4     -2019.605          35.000    23295148.291 1  95389735.528 2     -1573.565          39.000  
G31  22727637.101 4               7     -1635.874          31.000    22727659.454 8                     -1274.786          22.000  
G32  22933767.641 9                     -3516.127          22.000    22933754.662 9                     -2742.314          22.000  
R 7  20292404.066 1 108626826.931 2     -2699.059          40.000    20292408.577 2  84487555.298 3     -2098.805          35.000  
R 8  21421010.156 2 114708574.587 3      1133.655          35.000    21421004.922 9                       887.956          21.000  
R 9  23748177.517 9                     -3979.449          27.000    23748188.831 9                     -3095.953          18.000  
R10  21867704.048 4               6     -3044.500          30.000    21308944.764 4  88346759.40124       718.321          34.000  
R11  22919812.931 4 122476527.892 5      -697.317          33.000    22919822.356 4  95259549.770 5      -541.701          33.000  
E 5  23330454.612 1 122602382.048 2      -128.378          40.000                                                                  
C19  25553073.034 1 133061573.885 4       782.215          35.000                                                                  
> 2024  1 10 15 44 56.0030000  0 13                     
G 3  23906164.635 9                     -1022.126          25.000    23906212.048 2  97892006.276 5      -798.615          33.000  
G 4  25715719.681 2               7      1940.877          27.000    25715739.099 8                      1514.798          25.000  
G26  21321091.769 1 112043080.965 2     -2333.497          42.000    21321102.521 2  87306344.951 5     -1818.149          33.000  
G28  23295522.808 1 122418809.214 4     -2020.040          35.000    23295532.601 1  95391309.097 2     -1573.546          39.000  
G31  22727948.287 2               7     -1636.271          30.000    22727969.534 8                     -1274.440          23.000  
G32  22934438.995 9                     -3525.834          19.000    22934424.639 9                     -2745.484          22.000  
R 7  20292908.385 1 108629526.403 2     -2699.936          40.000    20292912.743 2  84489654.889 3     -2100.045          35.000  
R 8  21420798.581 2 114707441.344 4      1132.774          34.000    21420792.346 9                       887.505          21.000  
R 9  23748922.882 9                     -3979.041          26.000                                                                  
R10  21868275.153 4               6     -3044.318          30.000    21308771.203 4  88346041.64324       717.218          34.000  
R11  22919943.244 4 122477224.976 5      -697.205          33.000    22919952.939 4  95260091.966 5      -542.018          32.000  
E 5  23330478.754 1 122602510.617 2      -129.035          39.000                                                                  
C19  25552922.930 1 133060791.966 3       781.828          35.000                                                                  
> 2024  1 10 15 44 57.0030000  0 13                     
G 3  23906361.230 8                     -1025.446          26.000    23906407.194 2  97892805.698 5      -799.467          32.000  
G 4  25715350.481 2               7      1941.076          27.000    25715369.545 9                      1512.795          24.000  
G26  21321535.806 1 112045414.912 2     -2334.125          42.000    21321546.667 2  87308163.551 5     -1818.209          33.000  
G28  23295907.131 1 122420828.711 4     -2018.975          34.000    23295916.849 1  95392882.739 2     -1573.606          39.000  
G31  22728259.482 2               7     -1636.512          29.000    22728280.028 8                     -1276.173          23.000  
G32  22935112.353 9                     -3520.864          17.000    22935093.621 9                     -2739.715          22.000  
R 7  20293412.837 1 108632226.828 2     -2700.833          40.000    20293417.222 2  84491755.198 3     -2100.083          35.000  
R 8  21420587.061 2 114706308.851 5      1132.037          33.000    21420580.437 9                       888.627          22.000  
R 9  23749668.463 8                     -3978.429          25.000                                                                  
R10  21868846.457 4                     -3044.679          29.000    21308598.007 4  88345324.46924       717.437          35.000  
R11  22920073.711 4 122477922.489 5      -697.889          34.000    22920083.559 4  95260634.503 5      -542.652          32.000  
E 5  23330503.191 1 122602639.570 2      -129.098          39.000                                                                  
C19  25552772.795 1 133060010.470 3       781.628          35.000                                                                  
> 2024  1 10 15 44 58.0030000  0 13                     
G 3  23906556.306 8                     -1027.041          26.000    23906602.295 2               6      -800.631          32.000  
G 4  25714981.308 2               6      1941.027          27.000    25714999.634 8                      1512.564          24.000  
G26  21321979.870 1 112047749.280 2     -2334.576          42.000    21321990.990 2  87309982.590 5     -1819.354          32.000  
G28  23296291.521 2 122422848.324 4     -2019.792          33.000    23296301.067 1  95394456.460 2     -1573.671          39.000  
G31  22728570.640 2               6     -1636.583          29.000    22728591.190 9                     -1274.787          23.000  
G32  22935783.625 9                     -3514.491          18.000    22935764.750 9                     -2745.511          23.000  
R 7  20293917.501 1 108634928.211 2     -2702.061          39.000    20293921.845 2  84493856.282 3     -2101.114          35.000  
R 8  21420375.658 2 114705177.088 4      1131.385          33.000    21420368.608 9                       888.372          21.000  
R 9  23750412.509 8                     -3978.533          26.000                                                                  
R10  21869417.715 4                     -3044.618          29.000                                                                  
R11  22920204.035 4 122478620.404 5      -697.636          33.000    22920214.263 4               6      -542.891          32.000  
E 5  23330527.606 1 122602768.845 2      -129.342          39.000                                                                  
C19  25552622.661 1 133059229.407 3       780.802          36.000                                                                  
> 2024  1 10 15 44 59.0030000  0 13                     
G 3  23906753.835 9                     -1026.484          25.000    23906797.501 2               6      -800.358          32.000  
G 4  25714611.994 2               7      1941.683          27.000    25714629.919 8                      1515.262          25.000  
G26  21322424.146 1 112050084.118 2     -2334.912          42.000    21322435.228 2  87311801.988 5     -1819.524          33.000  
G28  23296676.017 1 122424867.959 4     -2019.290          34.000    23296685.354 1  95396030.216 2     -1573.895          39.000  
G31  22728881.831 2               7     -1636.091          30.000    22728901.746 9                     -1275.759          22.000  
G32  22936452.897 9                     -3514.788          21.000    22936435.221 9                     -2746.416          23.000  
R 7  20294422.244 1 108637630.535 2     -2703.062          39.000    20294426.831 2  84495958.114 3     -2102.549          35.000  
R 8  21420164.336 2 114704046.057 5      1130.996          32.000    21420155.105 9                       876.495          20.000  
R 9  23751156.386 8                     -3978.611          25.000                                                                  
R10  21869988.841 4                     -3045.505          28.000                                                                  
R11  22920334.634 4 122479318.749 5      -698.101          33.000    22920344.840 4  95261720.478 5      -542.931          32.000  
E 5  23330552.312 1 122602898.441 2      -129.784          39.000                                                                  
C19  25552472.792 1 133058448.807 3       780.217          35.000                                                                  
> 2024  1 10 15 45  0.0030000  0 13                     
G 3  23906953.995 9                     -1030.159          25.000    23906992.931 2  97895206.707 5      -800.341          32.000  
G 4  25714242.639 2                      1940.979          26.000                                                                  
G26  21322868.493 1 112052419.334 2     -2335.713          41.000    21322879.578 2  87313621.611 5     -1819.797          33.000  
G28  23297060.440 1 122426887.609 4     -2020.600          35.000    23297069.657 1  95397603.932 2     -1573.679          39.000  
G31  22729193.158 2               7     -1636.745          29.000    22729213.647 9                     -1275.358          22.000  
G32  22937124.677 9                     -3521.418          20.000    22937104.657 9                     -2749.209          23.000  
R 7  20294927.231 1 108640333.706 2     -2703.912          39.000    20294931.697 2  84498060.555 3     -2102.809          35.000  
R 8  21419952.832 4               6      1129.463          31.000    21419944.017 9                       874.066          21.000  
R 9  23751898.619 9                     -3979.983          24.000                                                                  
R10  21870560.193 4                     -3046.243          27.000                                                                  
R11  22920465.386 4 122480017.404 5      -698.946          34.000    22920475.622 4               6      -544.592          32.000  
E 5  23330577.303 1 122603028.240 2      -130.031          39.000    23330595.819 9               7       -99.285          36.000  
C19  25552322.843 1 133057668.513 3       779.818          36.000                                                                  
> 2024  1 10 15 45  1.0030000  0 12                     
G 3  23907157.843 8               7     -1029.146          27.000    23907188.258 2  97896007.988 5      -801.928          32.000  
G 4  25713873.132 2                      1941.334          25.000                                                                  
G26  21323312.834 1 112054755.038 1     -2335.841          42.000    21323323.906 2  87315441.612 5     -1819.663          33.000  
G28  23297444.824 1 122428907.312 3     -2019.525          35.000    23297454.025 1  95399177.740 2     -1573.771          39.000  
G31  22729504.594 2               7     -1636.499          29.000    22729524.274 9                     -1271.643          21.000  
G32  22937798.388 9                     -3520.480          21.000    22937774.872 9                     -2742.512          23.000  
R 7  20295432.344 2 108643037.797 2     -2704.517          38.000    20295436.871 2  84500163.721 4     -2103.188          35.000  
R 8  21419741.447 4               6      1129.372          30.000    21419734.081 9                       882.760          21.000  
R10  21871131.419 4               7     -3045.589          27.000                                                                  
R11  22920596.272 2 122480716.493 4      -699.512          35.000    22920606.510 4               6      -544.027          32.000  
E 5  23330602.028 1 122603158.400 2      -130.375          39.000    23330618.514 8  93942740.74914       -99.961          35.000  
C19  25552173.077 1 133056888.637 3       780.093          36.000                                                                  
> 2024  1 10 15 45  2.0030000  0 12                     
G 3  23907356.716 8               7     -1028.604          27.000    23907383.783 2  97896809.684 5      -802.396          32.000  
G 4  25713501.139 8                      1939.764          25.000                                                                  
G26  21323757.450 1 112057091.112 2     -2336.035          42.000    21323768.479 2  87317261.959 5     -1820.330          32.000  
G28  23297829.352 1 122430927.029 4     -2019.514          35.000    23297838.372 1  95400751.552 2     -1573.934          39.000  
G31  22729815.922 2               7     -1635.949          28.000    22729835.069 9                     -1280.968          21.000  
G32  22938468.770 9                     -3514.481          21.000    22938444.558 9                     -2745.584          24.000  
R 7  20295937.573 2 108645742.695 3     -2705.026          38.000    20295942.139 2  84502267.574 3     -2104.257          35.000  
R 8  21419529.786 4               6      1128.682          29.000    21419523.436 9                       881.585          22.000  
R10  21871702.836 4                     -3045.582          26.000                                                                  
R11  22920727.045 4 122481415.885 4      -699.903          34.000    22920737.328 4  95263351.565 5      -543.918          31.000  
E 5  23330626.607 1 122603288.818 2      -130.773          39.000    23330643.859 4  93942840.670 3      -100.364          35.000  
C19  25552023.286 1 133056109.093 4       779.746          35.000                                                                  
> 2024  1 10 15 45  3.0030000  0 12                     
G 3  23907556.740 8               7     -1029.290          28.000    23907579.193 2  97897611.696 5      -802.110          32.000  
G 4  25713131.104 9                      1941.504          25.000    25713152.832 9                      1522.670          22.000  
G26  21324202.000 1 112059427.534 2     -2336.635          42.000    21324212.985 2  87319082.567 5     -1820.624          33.000  
G28  23298213.644 1 122432946.681 4     -2019.811          34.000    23298222.691 1  95402325.290 2     -1573.911          39.000  
G31  22730126.950 2                     -1636.101          27.000    22730145.378 9                     -1275.386          20.000  
G32  22939138.635 9                     -3524.054          23.000    22939115.125 9                     -2752.271          24.000  
R 7  20296442.899 2 108648448.348 3     -2706.023          37.000    20296447.432 2  84504371.934 3     -2104.552          35.000  
R 8  21419318.573 4               6      1128.834          29.000    21419313.311 9                       881.766          21.000  
R10  21872273.772 4                     -3045.153          26.000                                                                  
R11  22920857.900 2 122482115.549 4      -700.291          34.000    22920868.407 4               6      -544.375          31.000  
E 5  23330651.515 1 122603419.396 2      -130.864          39.000    23330668.019 2  93942940.711 3      -100.373          35.000  
C19  25551873.661 1 133055329.871 3       778.922          35.000                                                                  
> 2024  1 10 15 45  4.0030000  0 12                     
G 3  23907755.554 8               7     -1030.344          28.000    23907774.816 2  97898414.334 5      -802.673          32.000  
G 4  25712760.629 9                      1942.274          24.000    25712782.218 9                      1516.140          22.000  
G26  21324646.644 1 112061764.551 1     -2337.429          42.000    21324657.594 2  87320903.610 5     -1821.856          32.000  
G28  23298598.120 1 122434966.530 4     -2020.738          34.000    23298607.047 1  95403899.184 2     -1573.806          39.000  
G31  22730438.437 2                     -1636.926          25.000    22730455.996 9                     -1267.021          20.000  
G32  22939809.106 9                     -3522.662          25.000    22939786.615 9                     -2737.564          24.000  
R 7  20296948.449 2 108651154.997 3     -2707.205          37.000    20296953.022 2  84506477.105 4     -2105.489          35.000  
R 8  21419107.546 4               6      1127.334          29.000    21419100.986 9                       875.895          21.000  
R10  21872844.906 9                     -3047.161          24.000                                                                  
R11  22920988.942 4 122482815.725 3      -700.085          34.000    22920999.562 4               6      -544.553          31.000  
E 5  23330676.188 1 122603550.425 2      -131.130          39.000    23330693.176 1  93943041.089 3      -100.016          35.000  
C19  25551724.036 1 133054551.181 4       778.377          36.000                                                                  
> 2024  1 10 15 45  5.0030000  0 12                     
G 3  23907951.353 8               7     -1030.521          28.000    23907970.500 2  97899217.346 5      -803.302          32.000  
G 4  25712390.290 9                      1941.110          25.000    25712413.158 9                      1513.911          21.000  
G26  21325091.363 1 112064101.924 2     -2337.907          42.000    21325102.271 2  87322724.945 4     -1821.738          32.000  
G28  23298982.524 1 122436986.287 4     -2020.106          34.000    23298991.454 1  95405473.061 2     -1574.133          39.000  
G31  22730750.060 4                     -1636.537          25.000    22730767.047 9                     -1280.772          20.000  
G32  22940482.717 9                     -3524.870          24.000    22940456.253 9                     -2750.335          23.000  
R 7  20297454.089 2 108653862.403 3     -2708.189          36.000    20297458.752 2  84508582.902 4     -2106.213          35.000  
R 8  21418896.678 4               6      1126.989          29.000    21418889.971 9                       874.994          23.000  
R10  21873415.157 9                     -3045.875          25.000                                                                  
R11  22921119.767 2 122483516.222 4      -701.113          35.000    22921130.479 4  95264985.169 5      -545.255          31.000  
E 5  23330701.590 1 122603681.671 2      -131.719          39.000    23330718.229 1  93943141.694 3      -101.201          35.000  
C19  25551574.471 1 133053772.790 3       777.740          36.000                                                                  
> 2024  1 10 15 45  6.0030000  0 12                     
G 3  23908147.135 8               6     -1031.354          28.000    23908166.326 4  97900020.730 5      -803.011          31.000  
G 4  25712018.682 9                      1940.625          25.000    25712042.655 9                      1519.288          21.000  
G26  21325536.136 1 112066439.638 2     -2337.920          42.000    21325547.025 2  87324546.516 5     -1821.488          32.000  
G28  23299366.721 1 122439006.015 4     -2019.013          34.000    23299375.948 1  95407046.854 2     -1573.648          39.000  
G31  22731061.994 4                     -1636.635          25.000    22731077.389 9                     -1270.600          22.000  
G32  22941150.009 9                     -3525.415          23.000    22941127.090 9                     -2743.524          22.000  
R 7  20297959.942 2 108656570.607 3     -2708.486          36.000    20297964.506 2  84510689.228 4     -2106.108          35.000  
R 8  21418686.007 4               6      1126.364          30.000    21418679.377 9                       874.626          24.000  
R10  21873984.875 9                     -3044.815          24.000                                                                  
R11  22921251.001 4 122484216.954 3      -700.676          35.000    22921261.795 4  95265530.166 5      -544.928          32.000  
E 5  23330726.507 1 122603813.139 2      -131.723          39.000    23330743.257 1  93943242.407 3      -100.784          35.000  
C19  25551425.049 1 133052994.718 3       777.543          36.000                                                                  
> 2024  1 10 15 45  7.0030000  0 12                     
G 3  23908344.008 4               6     -1032.128          28.000    23908362.436 2               6      -804.369          31.000  
G 4  25711648.091 9                      1940.710          25.000    25711671.210 9                      1502.205          21.000  
G26  21325981.100 1 112068777.677 2     -2338.493          42.000    21325991.822 2               6     -1822.670          32.000  
G28  23299751.123 1 122441025.714 4     -2019.912          34.000    23299760.284 1  95408620.612 2     -1573.690          39.000  
G31  22731373.864 2                     -1636.725          26.000    22731388.431 9                     -1269.926          22.000  
G32  22941816.077 9                     -3523.844          24.000    22941796.783 9                     -2743.980          22.000  
R 7  20298465.879 2 108659279.639 3     -2710.076          36.000    20298470.517 2  84512796.260 3     -2107.492          35.000  
R 8  21418475.575 4 114695020.918 5      1125.817          31.000    21418469.261 9                       879.294          25.000  
R10  21874555.543 9                     -3057.182          21.000                                                                  
R11  22921382.129 2 122484918.001 4      -701.576          35.000    22921392.959 4  95266075.431 5      -545.740          32.000  
E 5  23330751.651 1 122603944.758 2      -131.884          39.000    23330768.224 1  93943343.240 3      -100.846          35.000  
C19  25551275.635 1 133052216.894 3       777.724          36.000                                                                  
> 2024  1 10 15 45  8.0030000  0 12                     
G 3  23908543.550 8              16     -1032.911          28.000    23908558.462 2  97901628.706 5      -805.008          31.000  
G 4  25711280.465 9                      1941.853          25.000    25711301.489 9                      1510.695          20.000  
G26  21326425.962 1 112071116.070 2     -2338.790          43.000    21326436.657 2               6     -1822.548          32.000  
G28  23300135.426 2 122443045.314 4     -2019.541          34.000    23300144.599 1  95410194.360 2     -1574.098          39.000  
G31  22731685.782 2               7     -1636.033          27.000    22731698.969 9                     -1274.237          22.000  
G32  22942484.007 9               7     -3524.957          26.000    22942468.729 9                     -2748.657          22.000  
R 7  20298971.939 2 108661989.460 3     -2711.233          36.000    20298976.591 2  84514903.866 4     -2108.348          35.000  
R 8  21418265.558 4 114693895.652 4      1124.436          32.000    21418260.305 9                       872.670          26.000  
R10  21875126.466 9                     -3043.914          20.000                                                                  
R11  22921513.363 2 122485619.319 3      -701.606          36.000    22921524.172 4               6      -545.469          32.000  
E 5  23330776.893 1 122604076.592 2      -132.037          40.000    23330793.358 1  93943444.253 3      -100.815          35.000  
C19  25551126.311 1 133051439.410 4       777.207          36.000                                                                  
> 2024  1 10 15 45  9.0030000  0 12                     
G 3  23908740.217 8               6     -1032.812          28.000    23908754.747 2               7      -804.908          31.000  
G 4  25710912.527 9                      1942.935          24.000    25710932.230 9                      1505.162          19.000  
G26  21326870.974 1 112073454.869 1     -2338.935          43.000    21326881.638 2               6     -1822.555          32.000  
G28  23300519.682 1 122445065.010 4     -2020.345          34.000    23300528.915 1  95411768.106 2     -1573.622          39.000  
G31  22731997.857 2               7     -1635.809          28.000    22732009.937 9                     -1279.825          21.000  
G32  22943152.600 8               6     -3525.486          27.000    22943139.151 9                     -2745.871          23.000  
R 7  20299478.333 2 108664700.119 3     -2711.039          36.000    20299483.205 2  84517012.180 3     -2108.088          35.000  
R 8  21418055.696 4 114692770.986 5      1124.566          33.000    21418052.002 9                       875.409          26.000  
R10  21875696.725 9                     -3045.330          20.000                                                                  
R11  22921644.481 2 122486320.993 3      -701.350          36.000    22921655.581 4               6      -546.279          32.000  
E 5  23330801.882 1 122604208.725 2      -132.182          39.000    23330818.452 1  93943545.507 3      -101.289          35.000  
C19  25550977.049 1 133050662.286 3       777.351          35.000                                                                  
> 2024  1 10 15 45 10.0030000  0 12                     
G 3  23908937.764 8               6     -1033.879          28.000    23908951.303 2               7      -804.015          30.000  
G 4  25710542.247 9                      1941.291          24.000    25710563.506 9                      1519.720          18.000  
G26  21327315.948 1 112075794.073 1     -2339.657          43.000    21327326.729 2  87331835.744 5     -1823.548          32.000  
G28  23300903.961 2 122447084.582 5     -2019.499          33.000    23300913.311 1  95413341.845 2     -1573.898          39.000  
G31  22732309.982 2               7     -1636.792          28.000    22732320.948 9                     -1270.126          22.000  
G32  22943822.217 8               7     -3525.984          28.000    22943810.623 9                     -2749.922          22.000  
R 7  20299984.835 2 108667411.631 3     -2712.319          35.000    20299989.825 2  84519121.155 4     -2109.189          34.000  
R 8  21417846.172 2 114691646.938 5      1124.236          34.000    21417844.072 9                       873.650          25.000  
R10  21876265.795 9                     -3046.795          20.000                                                                  
R11  22921775.954 2 122487022.993 3      -702.430          36.000    22921786.971 4  95267712.604 5      -546.232          32.000  
E 5  23330826.728 1 122604341.057 2      -132.271          39.000    23330843.505 1  93943646.941 3      -101.852          35.000  
C19  25550827.842 1 133049885.519 3       776.566          35.000                                                                  
> 2024  1 10 15 45 11.0030000  0 12                     
G 3  23909135.392 8               7     -1032.891          30.000    23909147.881 2                      -805.692          30.000  
G 4  25710171.528 9                      1942.417          23.000    25710194.146 9                      1510.254          17.000  
G26  21327761.132 1 112078133.621 1     -2339.543          43.000    21327771.749 2               6     -1822.253          32.000  
G28  23301288.318 2 122449104.213 5     -2019.495          33.000    23301297.678 1  95414915.550 2     -1573.736          39.000  
G31  22732621.964 2               6     -1635.706          30.000    22732632.829 9                     -1276.662          23.000  
G32  22944490.696 8               6     -3526.173          29.000    22944482.973 9                     -2750.594          23.000  
R 7  20300491.441 2 108670123.955 4     -2712.569          35.000    20300496.411 2  84521230.733 4     -2110.075          34.000  
R 8  21417636.672 2 114690523.478 4      1122.815          35.000    21417636.746 9                       871.956          25.000  
R10  21876837.800 9                     -3045.151          20.000                                                                  
R11  22921907.528 2 122487725.282 3      -702.513          37.000    22921918.426 4               6      -546.300          32.000  
E 5  23330852.000 1 122604473.642 2      -132.848          40.000    23330868.757 1  93943748.496 3      -101.492          35.000  
C19  25550678.778 1 133049109.078 4       776.416          35.000                                                                  
> 2024  1 10 15 45 12.0030000  0 12                     
G 3  23909332.339 8               6     -1033.908          29.000    23909344.367 2                      -805.768          30.000  
G 4  25709801.720 9                      1942.155          23.000    25709823.664 9                      1512.418          17.000  
G26  21328206.313 1 112080473.550 1     -2340.261          43.000    21328216.924 2               6     -1823.854          31.000  
G28  23301672.579 1 122451123.801 4     -2020.136          33.000    23301681.963 1  95416489.230 2     -1573.647          39.000  
G31  22732934.095 4               6     -1636.043          31.000    22732943.939 9                     -1274.532          23.000  
G32  22945159.349 8              16     -3526.803          29.000    22945154.629 9                     -2749.633          24.000  
R 7  20300998.212 2 108672837.103 4     -2713.797          35.000    20301003.129 2  84523340.938 4     -2110.436          35.000  
R 8  21417427.131 2 114689400.584 4      1122.704          35.000    21417427.785 9                       872.848          25.000  
R10  21877409.093 9                     -3048.504          20.000                                                                  
R11  22922039.156 2 122488427.848 2      -702.683          37.000    22922049.848 4  95268805.291 5      -546.385          32.000  
E 5  23330877.211 1 122604606.454 2      -133.369          39.000    23330893.822 1  93943850.270 3      -101.882          35.000  
C19  25550529.823 1 133048332.942 3       776.156          35.000                                                                  
> 2024  1 10 15 45 13.0030000  0 12                     
G 3  23909530.389 8               6     -1034.373          29.000    23909541.054 2               7      -806.126          30.000  
G 4  25709431.237 9                      1942.904          23.000    25709452.352 9                      1524.493          17.000  
G26  21328651.439 1 112082813.759 2     -2340.419          43.000    21328662.108 2               6     -1824.068          31.000  
G28  23302056.868 1 122453143.252 4     -2019.961          33.000    23302066.252 1  95418062.824 2     -1573.391          39.000  
G31  22733246.250 2 119464045.822 5     -1635.281          32.000    22733255.389 9                     -1274.338          23.000  
G32  22945832.170 8               7     -3527.172          29.000    22945826.656 9                     -2745.969          24.000  
R 7  20301504.983 2 108675550.935 4     -2713.561          34.000    20301509.934 2  84525451.737 4     -2111.121          34.000  
R 8  21417217.585 2 114688278.241 3      1122.075          36.000    21417218.911 9                       872.260          25.000  
R10  21877982.220 9                     -3046.942          19.000                                                                  
R11  22922170.866 2 122489130.665 2      -702.978          38.000    22922181.248 4  95269351.948 5      -547.445          32.000  
E 5  23330902.522 1 122604739.395 2      -133.130          39.000    23330919.036 1  93943952.121 3      -101.680          35.000  
C19  25550380.909 1 133047557.070 4       776.124          36.000                                                                  
> 2024  1 10 15 45 14.0030000  0 12                     
G 3  23909726.718 4               6     -1035.105          29.000    23909737.956 2                      -806.805          30.000  
G 4  25709058.727 9                      1942.668          23.000    25709082.725 9                      1511.209          18.000  
G26  21329096.847 1 112085154.405 2     -2340.970          43.000    21329107.344 2               6     -1823.498          31.000  
G28  23302441.066 1 122455162.730 4     -2019.390          34.000    23302450.728 1  95419636.455 2     -1573.713          39.000  
G31  22733558.402 2 119465681.877 5     -1636.544          32.000    22733566.413 9                     -1277.371          23.000  
G32  22946502.258 8 120584735.25315     -3527.740          30.000    22946498.543 9                     -2758.402          24.000  
R 7  20302011.988 2 108678265.721 4     -2715.196          34.000    20302017.085 2  84527563.190 4     -2111.885          34.000  
R 8  21417008.073 2 114687156.599 3      1120.788          35.000    21417010.450 9                       870.820          25.000  
R10  21878554.262 9                     -3039.192          20.000                                                                  
R11  22922302.618 2 122489833.872 2      -703.521          38.000    22922312.715 4  95269898.852 5      -546.938          33.000  
E 5  23330927.727 1 122604872.624 2      -133.562          39.000    23330944.428 1  93944054.204 3      -101.854          35.000  
C19  25550232.104 1 133046781.571 4       775.439          35.000                                                                  
> 2024  1 10 15 45 15.0030000  0 13                     
G 3  23909923.747 4 125647376.077 5     -1035.999          29.000    23909934.854 2               7      -807.507          30.000  
G 4  25708688.465 9                      1947.784          23.000    25708713.304 9                      1516.067          18.000  
G16  21645944.741 9               7      -345.974          27.000                                                                  
G26  21329542.132 1 112087495.393 1     -2341.272          43.000    21329552.662 2               7     -1825.109          31.000  
G28  23302825.385 1 122457182.171 4     -2019.305          34.000    23302835.002 1  95421210.049 2     -1573.693          39.000  
G31  22733870.172 2 119467317.797 5     -1636.441          32.000    22733876.762 9                     -1280.170          23.000  
G32  22947177.528 8 120588262.978 5     -3527.488          31.000    22947171.126 9                     -2748.218          24.000  
R 7  20302519.072 2 108680981.241 4     -2715.917          33.000    20302524.288 2  84529675.282 4     -2112.438          34.000  
R 8  21416798.637 2 114686035.479 4      1120.646          35.000    21416802.500 9                       871.022          25.000  
R10  21879123.973 9                     -3036.136          21.000                                                                  
R11  22922434.448 2 122490537.307 3      -703.685          38.000    22922444.605 4  95270445.991 5      -547.124          33.000  
E 5  23330952.930 1 122605006.064 2      -133.768          39.000    23330969.804 1  93944156.478 3      -102.667          35.000  
C19  25550083.270 1 133046006.379 4       775.890          35.000                                                                  
> 2024  1 10 15 45 16.0030000  0 14                     
G 3  23910122.297 4               7     -1036.187          29.000    23910131.840 2               7      -807.558          29.000  
G 4  25708317.650 9                      1941.146          23.000    25708342.709 9                      1514.730          17.000  
G16  21646013.646 9               7      -346.228          28.000                                                                  
G26  21329987.711 1 112089836.737 2     -2341.443          43.000    21329997.947 2               6     -1824.604          31.000  
G28  23303209.573 1 122459201.602 4     -2019.669          34.000    23303219.340 1  95422783.596 2     -1573.076          39.000  
G31  22734182.033 2 119468953.663 5     -1635.727          32.000    22734186.533 9                     -1273.255          22.000  
G32  22947848.251 8               6     -3528.919          32.000    22947843.945 9                     -2747.006          25.000  
R 7  20303026.323 2 108683697.532 4     -2715.806          33.000    20303031.647 2  84531787.983 4     -2113.278          34.000  
R 8  21416589.513 2 114684915.024 4      1119.894          35.000    21416594.171 9                       871.524          25.000  
R 9  23763793.164 9                     -3975.527          26.000                                                                  
R10  21879695.477 9                     -3049.435          21.000                                                                  
R11  22922566.384 2 122491241.085 2      -703.959          38.000    22922576.293 2  95270993.363 4      -547.504          32.000  
E 5  23330978.406 1 122605139.714 2      -133.632          39.000    23330995.094 1  93944258.901 3      -102.944          35.000  
C19  25549934.518 1 133045231.506 4       775.567          35.000                                                                  
> 2024  1 10 15 45 17.0030000  0 14                     
G 3  23910321.807 4               6     -1037.620          30.000    23910328.753 4               7      -807.839          30.000  
G 4  25707947.660 9                      1947.069          24.000    25707971.025 9                      1506.568          16.000  
G16  21646072.412 9               7      -347.919          29.000                                                                  
G26  21330433.247 1 112092178.434 1     -2341.740          43.000    21330443.370 2               6     -1825.410          31.000  
G28  23303593.883 2 122461220.991 5     -2019.589          34.000    23303603.591 1  95424357.148 2     -1573.827          39.000  
G31  22734493.919 2 119470589.555 4     -1635.759          32.000    22734496.091 9                     -1278.445          22.000  
G32  22948521.177 4 120595319.726 5     -3528.497          32.000    22948516.100 9                     -2750.084          25.000  
R 7  20303533.812 2 108686414.703 5     -2718.093          32.000    20303539.099 2  84533901.276 4     -2112.982          34.000  
R 8  21416380.364 2 114683795.108 4      1119.294          34.000    21416387.447 9                       871.066          25.000  
R 9  23764538.052 9                     -3976.462          26.000                                                                  
R10  21880266.982 9                     -3048.281          22.000                                                                  
R11  22922698.233 2 122491945.130 2      -704.088          38.000    22922708.201 4  95271540.926 5      -547.268          32.000  
E 5  23331003.772 1 122605273.575 2      -133.713          39.000    23331020.520 1  93944361.457 3      -102.720          36.000  
C19  25549785.848 1 133044456.955 4       775.126          35.000                                                                  
> 2024  1 10 15 45 18.0030000  0 13                     
G 3  23910521.656 4                     -1038.948          30.000    23910526.019 2               7      -808.228          30.000  
G 4  25707578.168 9                      1945.458          25.000    25707600.235 9                      1516.864          17.000  
G16  21646137.751 8               7      -348.360          29.000                                                                  
G26  21330878.883 1 112094520.476 2     -2342.242          42.000    21330888.944 2               6     -1825.571          31.000  
G28  23303978.078 2 122463240.285 5     -2018.894          33.000    23303987.929 1  95425930.631 2     -1573.779          39.000  
G31  22734805.592 2 119472225.359 5     -1635.909          32.000    22734807.998 9                     -1273.514          23.000  
G32  22949192.464 4 120598848.698 5     -3528.799          32.000    22949188.632 8                     -2750.938          26.000  
R 7  20304041.394 4               7     -2718.597          28.000    20304046.700 2  84536015.248 4     -2115.219          34.000  
R 8  21416171.398 4               6      1119.707          30.000    21416178.152 9                       871.380          25.000  
R10  21880837.904 9                     -3051.070          21.000                                                                  
R11  22922830.204 2 122492649.427 3      -703.878          36.000    22922840.221 4  95272088.784 4      -548.602          32.000  
E 5  23331029.181 1 122605407.658 2      -134.444          38.000    23331046.050 1  93944464.188 3      -103.090          35.000  
C19  25549637.237 1 133043682.705 4       774.167          34.000                                                                  
> 2024  1 10 15 45 19.0030000  0 13                     
G 3  23910720.029 4                     -1037.789          29.000    23910723.464 2               7      -808.747          29.000  
G 4  25707208.230 9                      1946.460          23.000    25707230.300 9                      1504.710          17.000  
G16  21646201.771 8               7      -348.120          29.000                                                                  
G26  21331324.642 1 112096862.917 2     -2342.743          41.000    21331334.454 2               6     -1825.467          31.000  
G28  23304362.219 2 122465259.602 5     -2019.544          32.000    23304372.192 1  95427504.107 2     -1573.643          39.000  
G31  22735117.305 2 119473861.124 5     -1635.750          31.000    22735119.585 9                     -1276.532          23.000  
G32  22949864.097 4 120602378.126 5     -3530.146          31.000    22949861.093 8                     -2752.023          26.000  
R 7                                                                  20304554.489 2  84538129.817 4     -2115.453          34.000  
R 8  21415962.651 4               6      1117.978          30.000    21415969.925 9                       870.143          25.000  
R10  21881408.237 9                     -3045.598          21.000                                                                  
R11  22922962.184 2 122493354.101 4      -704.920          33.000    22922972.103 4  95272636.861 5      -549.259          32.000  
E 5  23331054.736 1 122605541.993 3      -134.584          37.000    23331071.606 1  93944567.118 3      -103.046          34.000  
C19  25549488.579 1 133042908.799 4       773.560          34.000                                                                  
> 2024  1 10 15 45 20.0030000  0 13                     
G 3  23910918.013 4               7     -1038.598          29.000    23910921.040 2               6      -809.055          29.000  
G 4  25706837.962 9                      1942.947          23.000    25706859.300 9                      1518.078          18.000  
G16  21646268.696 4               7      -348.793          29.000                                                                  
G26  21331770.378 1 112099205.891 1     -2343.250          41.000    21331780.115 2               6     -1825.980          31.000  
G28  23304746.522 2 122467279.026 5     -2019.721          32.000    23304756.474 1  95429077.668 3     -1573.381          39.000  
G31  22735428.988 2               6     -1636.249          31.000    22735430.577 9                     -1280.313          22.000  
G32  22950535.710 4               7     -3530.663          30.000    22950533.002 8                     -2753.135          26.000  
R 7                                                                  20305062.448 2  84540245.096 5     -2115.105          34.000  
R 8                                                                  21415764.128 9                       868.319          25.000  
R10  21881979.603 9                     -3041.353          21.000                                                                  
R11  22923094.222 2 122494059.235 4      -705.385          34.000    22923104.068 4               6      -548.923          32.000  
E 5  23331080.116 1 122605676.666 3      -134.927          37.000    23331097.289 1  93944670.303 4      -102.999          35.000  
C19  25549340.094 1 133042135.389 4       773.181          33.000                                                                  
> 2024  1 10 15 45 21.0030000  0 13                     
G 3  23911115.807 2               7     -1039.138          29.000    23911118.638 2               7      -809.844          29.000  
G 4  25706467.830 9                      1946.882          23.000    25706489.973 9                      1511.034          17.000  
G16  21646330.684 4                      -349.294          29.000                                                                  
G26  21332216.144 1 112101549.059 2     -2343.434          41.000    21332225.621 2               7     -1825.886          31.000  
G28  23305130.753 2 122469298.295 5     -2019.572          32.000    23305140.653 1  95430651.112 2     -1573.253          39.000  
G31  22735740.514 2               7     -1635.786          30.000    22735741.751 9                     -1271.519          22.000  
G32  22951207.430 4               7     -3532.119          30.000    22951205.466 8               7     -2750.813          27.000  
R 7                                                                  20305570.608 2  84542360.949 4     -2116.330          34.000  
R 8                                                                  21415555.529 9                       869.214          25.000  
R10  21882549.634 9                     -3043.314          20.000                                                                  
R11  22923226.251 2 122494764.435 4      -705.704          34.000    22923236.174 4               6      -548.086          32.000  
E 5  23331105.700 1 122605811.444 3      -134.915          37.000    23331123.045 1  93944773.593 3      -103.425          34.000  
C19  25549191.713 1 133041362.150 4       773.090          34.000                                                                  
> 2024  1 10 15 45 22.0030000  0 13                     
G 3  23911313.498 2               6     -1039.274          29.000    23911316.396 2               7      -810.106          29.000  
G 4  25706099.802 9                      1940.969          24.000    25706117.557 9                      1508.103          17.000  
G16  21646395.492 4                      -349.561          30.000                                                                  
G26  21332662.047 1 112103892.524 2     -2343.772          42.000    21332671.299 2  87353730.661 5     -1825.907          31.000  
G28  23305514.842 2               6     -2019.352          32.000    23305524.911 1  95432224.484 2     -1573.353          39.000  
G31                                                                  22736053.483 9                     -1270.430          22.000  
G32  22951879.101 4               6     -3529.859          31.000    22951878.873 8                     -2751.074          27.000  
R 7                                                                  20306078.961 2  84544477.339 4     -2116.717          34.000  
R 8                                                                  21415346.880 9                       868.328          25.000  
R10  21883120.807 9                     -3046.115          21.000                                                                  
R11  22923358.250 2 122495469.918 4      -705.797          34.000    22923368.220 4  95274282.500 5      -548.713          31.000  
E 5  23331131.398 1 122605946.380 2      -135.220          38.000    23331148.751 1  93944876.999 4      -103.753          34.000  
C19  25549043.350 1 133040589.145 5       772.367          34.000                                                                  
> 2024  1 10 15 45 23.0030000  0 13                     
G 3  23911511.522 2               7     -1039.025          29.000    23911514.206 2               7      -810.320          29.000  
G 4  25705730.902 9                      1944.520          25.000    25705746.735 9                      1513.902          17.000  
G16  21646460.615 4               6      -349.921          30.000                                                                  
G26  21333108.040 1 112106236.234 2     -2344.003          42.000    21333117.035 2  87355556.938 5     -1826.769          31.000  
G28  23305899.135 2 122473336.440 5     -2018.794          32.000    23305909.126 1  95433797.713 2     -1573.223          39.000  
G31                                                                  22736365.619 9                     -1275.863          22.000  
G32  22952550.927 4               6     -3531.037          31.000    22952551.257 8                     -2751.427          26.000  
R 7                                                                  20306587.474 2  84546594.234 4     -2116.679          34.000  
R 8                                                                  21415140.035 9                       867.842          25.000  
R10  21883692.860 9                     -3048.709          22.000                                                                  
R11  22923490.318 2 122496175.601 4      -706.342          34.000    22923500.211 4  95274831.323 5      -548.918          31.000  
E 5  23331157.109 1 122606081.391 3      -135.172          38.000    23331174.287 1  93944980.417 4      -102.886          34.000  
C19  25548895.021 1 133039816.318 5       772.530          33.000                                                                  
> 2024  1 10 15 45 24.0030000  0 12                     
G 3  23911709.366 2 125656719.293 5     -1040.264          31.000    23911711.884 2               6      -810.382          29.000  
G 4  25705360.674 9                      1944.570          26.000    25705374.290 9                      1531.182          16.000  
G16  21646527.225 4 113753352.62215      -350.793          31.000                                                                  
G26  21333554.035 1 112108580.178 1     -2344.302          43.000    21333562.693 4               6     -1826.250          31.000  
G28  23306283.318 2 122475355.223 5     -2018.404          33.000    23306293.324 1  95435370.820 2     -1573.022          39.000  
G31                                                                  22736676.343 9                     -1273.761          22.000  
G32  22953223.067 2 120620031.097 5     -3531.979          32.000    22953224.555 8                     -2751.995          26.000  
R 7                                                                  20307095.991 2  84548711.715 4     -2117.732          34.000  
R 8                                                                  21414932.569 9                       868.045          25.000  
R11  22923622.493 2 122496881.411 3      -705.837          36.000    22923632.274 4               6      -549.311          31.000  
E 5  23331182.620 1 122606216.518 3      -135.378          38.000    23331199.979 1  93945083.983 3      -103.709          35.000  
C19  25548746.727 1 133039043.732 4       771.902          34.000                                                                  
> 2024  1 10 15 45 25.0030000  0 12                     
G 3  23911907.184 2               6     -1039.902          34.000    23911909.779 2               6      -810.670          29.000  
G 4  25704990.986 8                      1944.387          27.000    25705002.632 9                      1516.138          16.000  
G16  21646593.855 2 113753702.979 5      -350.568          35.000                                                                  
G26  21334000.042 1 112110924.449 1     -2344.335          45.000    21334008.333 4               6     -1826.992          31.000  
G28  23306667.377 1 122477374.032 4     -2018.624          35.000    23306677.480 1  95436943.879 2     -1572.918          39.000  
G31                                                                  22736987.898 9                     -1271.733          21.000  
G32  22953894.688 2 120623562.669 5     -3531.872          34.000    22953897.361 8                     -2751.770          27.000  
R 7                                                                  20307604.788 2  84550829.772 4     -2118.011          34.000  
R 8  21414711.317 4 114674805.34715      1114.607          34.000    21414724.938 9                       867.412          25.000  
R11  22923754.784 2 122497587.536 2      -706.425          41.000    22923764.425 4  95275929.499 5      -548.908          32.000  
E 5  23331208.103 1 122606351.820 3      -135.300          39.000    23331225.571 1  93945187.625 3      -103.148          35.000  
C19  25548598.471 1 133038271.375 4       772.837          35.000                                                                  
> 2024  1 10 15 45 26.0030000  0 13                     
G 3  23912105.148 2 125658800.463 5     -1040.598          33.000    23912107.754 2               6      -811.172          29.000  
G 4  25704622.649 8                      1943.724          27.000    25704632.427 9                      1508.176          16.000  
G16  21646660.417 2 113754053.797 4      -350.659          35.000                                                                  
G26  21334446.074 1 112113269.020 1     -2344.913          45.000    21334453.941 4               6     -1827.179          31.000  
G28  23307051.497 1 122479392.716 4     -2018.993          34.000    23307061.614 1  95438516.877 2     -1573.317          39.000  
G31                                                                  22737300.104 9                     -1277.094          20.000  
G32  22954566.485 2 120627094.630 5     -3532.027          33.000    22954570.594 8                     -2752.563          27.000  
R 7  20308076.114 9                     -2724.008          34.000    20308113.698 2  84552948.434 4     -2118.916          34.000  
R 8  21414503.078 4               6      1113.869          33.000    21414516.640 9                       866.963          26.000  
R10  21885425.781 9                     -3047.209          29.000                                                                  
R11  22923887.052 1 122498293.841 2      -706.812          40.000    22923896.703 4  95276478.857 5      -549.173          32.000  
E 5  23331233.807 1 122606487.284 3      -135.633          38.000    23331251.369 1  93945291.444 3      -103.806          35.000  
C19  25548450.286 1 133037499.343 3       771.705          34.000                                                                  
> 2024  1 10 15 45 27.0030000  0 13                     
G 3  23912303.278 2 125659841.648 5     -1041.915          33.000    23912305.974 2  97916982.646 5      -811.731          30.000  
G 4  25704255.244 8               7      1944.264          27.000    25704261.821 9                      1514.244          16.000  
G16  21646726.957 1 113754404.965 4      -351.367          35.000                                                                  
G26  21334892.167 1 112115613.744 1     -2344.866          45.000    21334899.538 4               6     -1827.312          32.000  
G28  23307435.607 1 122481411.163 4     -2018.324          34.000    23307445.654 1  95440089.682 2     -1572.885          39.000  
G31                                                                  22737612.183 9                     -1274.839          19.000  
G32  22955238.404 2 120630626.790 5     -3532.580          33.000    22955242.879 8                     -2752.386          27.000  
R 7  20308589.552 9               6     -2725.077          33.000    20308622.663 2  84555067.565 4     -2119.342          34.000  
R 8  21414294.716 4               6      1114.133          32.000    21414308.162 9                       866.545          25.000  
R10  21885996.721 9               7     -3046.453          29.000                                                                  
R11  22924019.450 2 122499000.267 2      -706.540          40.000    22924028.930 4  95277028.339 5      -550.015          32.000  
E 5  23331259.737 1 122606622.773 2      -135.554          39.000    23331277.279 1  93945395.274 3      -103.912          36.000  
C19  25548302.087 1 133036727.428 3       771.549          35.000                                                                  
> 2024  1 10 15 45 28.0030000  0 13                     
G 3  23912501.300 2 125660883.207 4     -1041.594          33.000    23912504.189 2               7      -812.115          30.000  
G 4  25703886.163 8               7      1944.925          28.000    25703891.828 9                      1518.370          16.000  
G16  21646793.607 1 113754756.581 4      -352.185          34.000                                                                  
G26  21335338.503 1 112117958.789 1     -2345.548          44.000    21335345.523 2  87364691.370 5     -1827.346          32.000  
G28  23307819.607 1 122483429.541 4     -2019.081          34.000    23307829.696 1  95441662.410 2     -1572.811          39.000  
G31                                                                  22737923.602 9                     -1268.995          19.000  
G32  22955910.458 2 120634159.282 5     -3532.733          32.000    22955914.707 8                     -2752.911          27.000  
R 7                                                                  20309131.725 2  84557187.265 5     -2120.104          34.000  
R 8  21414086.393 4               7      1114.457          32.000    21414100.330 9                       865.442          25.000  
R10  21886568.238 9                     -3048.633          29.000                                                                  
R11  22924151.868 1 122499706.929 2      -706.999          40.000    22924161.018 4               6      -549.720          31.000  
E 5  23331285.611 1 122606758.440 2      -136.085          39.000    23331303.102 1  93945499.189 3      -103.926          35.000  
C19  25548153.918 1 133035955.742 4       771.772          35.000                                                                  
> 2024  1 10 15 45 29.0030000  0 13                     
G 3  23912699.369 2 125661925.112 5     -1041.632          32.000    23912702.329 2               7      -812.259          29.000  
G 4  25703517.650 8               7      1944.751          28.000    25703521.126 9                      1512.832          15.000  
G16  21646860.339 2 113755108.542 4      -352.490          34.000                                                                  
G26  21335784.633 1 112120304.014 1     -2345.479          44.000    21335791.473 2  87366518.843 5     -1827.137          32.000  
G28  23308203.807 1 122485447.672 4     -2018.403          34.000    23308213.745 1  95443234.982 2     -1572.526          39.000  
G31                                                                  22738234.045 9                     -1268.947          20.000  
G32  22956582.486 2 120637692.049 5     -3533.871          32.000    22956587.137 8                     -2752.694          26.000  
R 7                                                                  20309640.892 2  84559307.426 4     -2120.918          33.000  
R 8  21413878.023 4               7      1113.224          32.000    21413893.688 9                       865.991          26.000  
R10  21887139.559 9                     -3047.293          29.000                                                                  
R11  22924284.265 1 122500413.683 2      -707.183          40.000    22924293.071 4               6      -549.879          31.000  
E 5  23331311.687 1 122606894.113 2      -135.787          39.000    23331329.057 1  93945603.196 3      -104.405          36.000  
C19  25548005.773 1 133035184.207 3       771.595          35.000                                                                  
> 2024  1 10 15 45 30.0030000  0 13                     
G 3  23912897.558 2               6     -1042.302          31.000    23912900.699 2               6      -812.412          29.000  
G 4  25703149.645 8               6      1944.671          28.000    25703149.955 9                      1520.838          14.000  
G16  21646927.028 1 113755461.137 4      -353.119          34.000                                                                  
G26  21336231.002 1 112122649.716 1     -2345.450          44.000    21336237.668 2  87368346.668 5     -1828.261          33.000  
G28  23308587.918 1 122487465.927 4     -2018.572          34.000    23308597.769 1  95444807.603 3     -1572.322          39.000  
G31                                                                  22738544.617 9                     -1276.206          20.000  
G32  22957254.764 2               6     -3532.739          32.000    22957259.773 8                     -2753.096          27.000  
R 7  20310123.429 4 108721675.57535     -2726.580          32.000    20310150.244 2  84561428.274 4     -2120.790          34.000  
R 8  21413669.789 4               6      1111.876          32.000    21413686.531 9                       865.668          26.000  
R10  21887709.215 8               6     -3047.457          29.000                                                                  
R11  22924416.732 1 122501120.887 2      -707.262          39.000    22924425.318 4               6      -549.956          32.000  
E 5  23331337.423 1 122607030.153 2      -135.959          39.000    23331354.911 1  93945707.414 3      -103.933          35.000  
C19  25547857.774 1 133034413.128 4       771.162          35.000                                                                  
> 2024  1 10 15 45 31.0030000  0 13                     
G 3  23913095.496 2 125664010.615 5     -1043.825          32.000    23913099.148 2               7      -812.494          30.000  
G 4  25702779.553 8               6      1945.274          29.000    25702778.838 9                      1540.012          13.000  
G16  21646993.794 1 113755814.100 4      -353.748          34.000                                                                  
G26  21336677.452 1 112124995.628 1     -2345.940          44.000    21336683.933 2  87370174.658 5     -1828.131          33.000  
G28  23308971.933 1 122489483.893 5     -2017.571          33.000    23308981.713 1  95446380.093 2     -1572.205          39.000  
G31                                                                  22738855.095 9                     -1276.831          19.000  
G32  22957927.069 2 120644758.900 5     -3533.178          33.000    22957932.499 8                     -2753.599          27.000  
R 7  20310633.394 4 108724403.056 5     -2728.036          31.000    20310659.598 2  84563549.666 5     -2122.087          33.000  
R 8  21413461.587 4 114668123.712 5      1111.715          33.000    21413478.429 9                       865.147          26.000  
R10  21888280.683 8               6     -3047.285          30.000                                                                  
R11  22924549.084 1 122501828.223 2      -707.554          39.000    22924557.718 4               6      -550.375          32.000  
E 5  23331363.553 1 122607166.260 2      -136.188          39.000    23331380.706 1  93945811.709 3      -104.451          35.000  
C19  25547709.684 1 133033642.191 4       770.692          35.000                                                                  
> 2024  1 10 15 45 32.0030000  0 13                     
G 3  23913293.713 2               6     -1043.508          32.000    23913297.751 4                      -813.209          30.000  
G 4  25702409.850 8               7      1945.165          29.000    25702405.422 9                      1516.387          14.000  
G16  21647060.679 1 113756167.473 4      -353.650          34.000                                                                  
G26  21337123.907 1 112127341.861 1     -2346.573          43.000    21337130.235 2  87372002.908 5     -1828.661          33.000  
G28  23309355.938 1 122491501.886 5     -2018.372          33.000    23309365.729 1  95447952.510 2     -1572.325          38.000  
G31  22739170.234 8 119495144.97915     -1634.789          33.000    22739165.288 9                     -1273.624          19.000  
G32  22958599.165 2 120648292.800 5     -3534.024          33.000    22958603.823 8                     -2754.015          27.000  
R 7                                                                  20311169.127 2  84565671.616 4     -2122.256          33.000  
R 8  21413253.365 4 114667012.022 4      1111.211          33.000    21413271.950 9                       864.032          26.000  
R10  21888852.222 8                     -3046.962          30.000                                                                  
R11  22924681.560 2 122502535.799 3      -707.725          39.000    22924690.227 4               6      -550.395          32.000  
E 5  23331389.304 1 122607302.527 2      -136.367          39.000    23331406.582 1  93945916.120 3      -104.437          35.000  
C19  25547561.778 1 133032871.550 4       770.379          35.000                                                                  
> 2024  1 10 15 45 33.0030000  0 13                     
G 3  23913491.979 2               6     -1045.062          32.000    23913496.441 4                      -813.663          30.000  
G 4  25702039.784 8               7      1945.596          29.000    25702034.242 9                      1504.584          14.000  
G16  21647127.500 1 113756521.371 4      -354.327          34.000                                                                  
G26  21337570.438 1 112129688.396 1     -2346.662          43.000    21337576.644 2  87373831.359 5     -1828.464          33.000  
G28  23309739.980 2 122493519.714 5     -2017.526          33.000    23309749.703 1  95449524.877 2     -1572.424          38.000  
G31  22739481.238 4 119496779.197 4     -1633.653          35.000    22739475.198 9                     -1273.763          17.000  
G32  22959271.670 1 120651827.079 4     -3534.047          34.000    22959275.824 8                     -2753.795          26.000  
R 7                                                                  20311678.812 2  84567794.167 4     -2122.875          33.000  
R 8  21413045.337 4 114665900.913 5      1110.526          32.000    21413066.308 9                       865.269          26.000  
R10  21889423.235 4               7     -3047.115          29.000                                                                  
R11  22924814.161 2 122503243.649 2      -708.048          39.000    22924822.488 4  95280328.738 5      -550.365          32.000  
E 5  23331415.463 1 122607438.988 2      -136.550          39.000    23331432.495 1  93946020.665 3      -104.506          35.000  
C19  25547413.926 1 133032101.214 4       770.392          34.000                                                                  
> 2024  1 10 15 45 34.0030000  0 13                     
G 3  23913690.498 2 125667141.930 5     -1044.558          33.000    23913695.240 2                      -813.879          30.000  
G 4  25701667.654 8                      1945.651          29.000    25701665.329 9                      1523.568          14.000  
G16  21647194.549 1 113756875.627 4      -354.053          34.000                                                                  
G26  21338017.004 1 112132035.143 1     -2346.858          43.000    21338023.061 2  87375660.002 4     -1828.970          33.000  
G28  23310123.965 1 122495537.364 5     -2017.217          33.000    23310133.620 1  95451097.079 2     -1572.232          38.000  
G31  22739792.725 4 119498413.262 4     -1633.711          34.000    22739784.193 9                     -1262.821          17.000  
G32  22959944.177 1 120655361.671 4     -3534.383          34.000    22959948.535 8                     -2754.136          26.000  
R 7                                                                  20312188.682 2  84569917.247 4     -2122.258          33.000  
R 8  21412837.397 4 114664790.142 5      1111.386          31.000    21412859.572 9                       863.662          26.000  
R10  21889994.623 4               7     -3046.284          28.000                                                                  
R11  22924946.710 2 122503951.617 2      -708.201          39.000    22924955.079 4  95280879.409 5      -550.800          32.000  
E 5  23331441.969 1 122607575.496 2      -136.544          39.000    23331458.404 1  93946125.257 3      -104.210          35.000  
C19  25547265.826 1 133031330.987 4       770.406          34.000                                                                  
> 2024  1 10 15 45 35.0030000  0 13                     
G 3  23913889.198 2 125668186.604 5     -1044.874          34.000    23913894.040 2               7      -814.068          29.000  
G 4  25701299.667 8               7      1945.812          29.000    25701294.451 9                      1519.544          14.000  
G16  21647261.730 2 113757230.346 4      -355.066          34.000                                                                  
G26  21338463.621 1 112134382.227 1     -2347.253          43.000    21338469.745 2  87377488.898 4     -1829.464          34.000  
G28  23310507.751 2 122497555.033 5     -2018.548          33.000    23310517.496 1  95452669.254 3     -1571.916          38.000  
G31  22740104.598 2 119500047.264 4     -1634.067          34.000    22740091.200 9                     -1263.040          17.000  
G32  22960616.782 1 120658896.585 4     -3534.798          34.000    22960621.771 8                     -2754.454          27.000  
R 7  20312673.723 4                     -2728.990          29.000    20312698.847 2  84572040.958 5     -2123.884          33.000  
R 8  21412630.108 4 114663680.110 5      1108.728          32.000    21412653.436 9                       863.055          25.000  
R10  21890565.954 4               7     -3046.674          28.000                                                                  
R11  22925079.235 2 122504659.864 3      -708.948          38.000    22925087.588 4  95281430.226 5      -550.217          32.000  
E 5  23331468.001 1 122607712.209 2      -136.829          39.000    23331484.392 1  93946230.029 3      -104.792          35.000  
C19  25547117.929 1 133030561.092 4       769.710          34.000                                                                  
> 2024  1 10 15 45 36.0030000  0 13                     
G 3  23914088.097 2 125669231.650 4     -1045.115          34.000    23914092.774 2               6      -814.838          29.000  
G 4  25700931.644 8               6      1945.590          29.000    25700922.234 9                      1512.241          15.000  
G16  21647329.074 1 113757585.494 5      -355.231          34.000                                                                  
G26  21338910.321 1 112136729.546 2     -2347.345          43.000    21338916.483 2  87379318.021 4     -1829.890          34.000  
G28  23310891.544 2 122499572.464 5     -2017.577          32.000    23310901.389 1  95454241.287 3     -1571.598          38.000  
G31  22740415.973 2 119501681.103 4     -1633.781          35.000    22740401.185 9                     -1280.492          18.000  
G32  22961289.419 1 120662431.848 4     -3535.759          33.000    22961294.627 8                     -2755.015          27.000  
R 7  20313184.041 4                     -2731.731          28.000    20313208.977 2  84574165.094 4     -2123.925          33.000  
R 8  21412422.720 4 114662570.401 5      1110.312          32.000    21412445.478 9                       862.903          25.000  
R10  21891137.065 4               7     -3046.251          28.000                                                                  
R11  22925211.831 2 122505368.255 3      -708.520          37.000    22925220.018 4               6      -550.227          32.000  
E 5  23331494.308 1 122607849.036 2      -137.021          39.000    23331510.530 1  93946334.857 3      -104.705          35.000  
C19  25546970.079 1 133029791.385 4       770.294          34.000                                                                  
> 2024  1 10 15 45 37.0030000  0 13                     
G 3  23914286.801 2 125670276.940 4     -1045.554          34.000    23914291.714 2                      -814.449          29.000  
G 4  25700557.335 8               6      1946.860          29.000    25700552.770 9                      1514.944          15.000  
G16  21647396.374 1 113757940.864 4      -355.884          33.000                                                                  
G26  21339357.071 1 112139076.979 2     -2347.832          43.000    21339363.563 2  87381147.144 4     -1829.244          34.000  
G28  23311275.403 2 122501589.642 5     -2017.391          32.000    23311285.261 1  95455813.105 3     -1571.729          38.000  
G31  22740726.989 1 119503314.658 4     -1633.740          36.000    22740709.189 9                     -1270.188          19.000  
G32  22961962.009 1 120665967.232 4     -3535.333          33.000    22961965.984 8                     -2754.709          26.000  
R 7  20313694.442 4                     -2731.722          28.000    20313719.107 2  84576289.691 4     -2124.465          33.000  
R 8  21412215.187 4 114661461.100 4      1109.371          33.000    21412238.953 9                       865.036          25.000  
R10  21891708.293 4                     -3047.024          26.000                                                                  
R11  22925344.421 2 122506076.722 3      -708.901          38.000    22925352.777 4  95282532.248 5      -551.284          32.000  
E 5  23331520.396 1 122607985.792 2      -136.630          39.000    23331536.400 1  93946439.638 3      -104.526          35.000  
C19  25546822.126 1 133029021.738 4       769.644          33.000                                                                  
> 2024  1 10 15 45 38.0030000  0 13                     
G 3  23914485.546 2 125671322.574 4     -1046.149          35.000    23914490.622 2               6      -814.856          29.000  
G 4  25700185.177 4               6      1946.476          29.000    25700184.675 9                      1508.679          15.000  
G16  21647463.834 1 113758296.578 4      -356.372          34.000                                                                  
G26  21339803.751 1 112141424.556 2     -2347.759          42.000    21339810.717 2  87382976.448 4     -1829.641          34.000  
G28  23311659.212 2 122503606.534 5     -2016.598          33.000    23311669.115 1  95457384.742 3     -1571.762          38.000  
G31  22741037.858 1 119504947.957 3     -1633.403          36.000    22741020.774 9                     -1277.547          18.000  
G32  22962634.804 1 120669502.830 4     -3535.464          34.000    22962638.335 8                     -2755.531          26.000  
R 7  20314204.871 4                     -2732.228          27.000    20314229.429 2  84578414.763 5     -2125.272          33.000  
R 8  21412007.708 4 114660352.166 4      1108.531          33.000    21412032.582 9                       865.314          24.000  
R10  21892279.392 4                     -3045.479          26.000                                                                  
R11  22925477.045 2 122506785.276 3      -709.253          37.000    22925485.543 2  95283083.369 5      -551.565          32.000  
E 5  23331546.453 1 122608122.582 2      -136.826          39.000    23331562.520 1  93946544.464 3      -105.012          36.000  
C19  25546674.162 1 133028252.249 4       769.015          33.000                                                                  
> 2024  1 10 15 45 39.0030000  0 13                     
G 3  23914684.350 2 125672368.605 4     -1045.583          35.000    23914689.721 2               6      -816.205          30.000  
G 4  25699815.705 4 135053405.63115      1946.466          29.000    25699814.463 9                      1518.296          15.000  
G16  21647531.371 2 113758652.710 4      -356.110          34.000                                                                  
G26  21340250.431 1 112143772.448 2     -2348.166          42.000    21340257.696 2  87384805.939 4     -1829.390          35.000  
G28  23312043.061 1 122505623.406 4     -2017.088          34.000    23312052.963 1  95458956.307 3     -1571.622          37.000  
G31  22741348.894 1 119506581.175 3     -1632.798          37.000    22741332.618 9                     -1261.421          17.000  
G32  22963307.602 1 120673038.816 4     -3535.965          36.000    22963310.812 8                     -2755.312          26.000  
R 7  20314715.216 4                     -2733.518          27.000    20314739.835 2  84580540.442 4     -2125.958          33.000  
R 8  21411800.315 4 114659243.823 5      1108.034          33.000    21411825.736 9                       855.543          22.000  
R10  21892849.442 8                     -3046.124          26.000                                                                  
R11  22925609.776 2 122507494.043 3      -708.477          39.000    22925618.318 4  95283634.641 5      -551.672          33.000  
E 5  23331572.760 1 122608259.554 2      -137.171          41.000    23331588.392 1  93946649.423 3      -105.236          35.000  
C19  25546526.244 1 133027483.005 4       768.912          34.000                                                                  
> 2024  1 10 15 45 40.0030000  0 13                     
G 3  23914883.065 1 125673414.895 4     -1046.505          35.000    23914888.806 2               6      -816.404          30.000  
G 4  25699443.780 4 135051458.473 5      1946.685          29.000    25699443.257 9                      1513.495          17.000  
G16  21647598.968 2 113759009.102 4      -356.616          34.000                                                                  
G26  21340697.204 1 112146120.386 2     -2347.973          42.000    21340704.637 2  87386635.534 4     -1829.737          35.000  
G28  23312426.950 1 122507639.918 4     -2016.603          34.000    23312436.682 1  95460527.612 3     -1571.429          37.000  
G31  22741660.084 1 119508214.089 3     -1633.094          36.000    22741641.513 9                     -1262.816          17.000  
G32  22963980.506 1 120676574.925 4     -3536.257          35.000    22963983.232 8                     -2756.199          26.000  
R 7  20315226.069 4               7     -2734.306          28.000    20315250.450 2  84582666.547 4     -2127.111          33.000  
R 8  21411592.939 4 114658135.777 4      1108.070          33.000    21411618.146 9                       857.062          22.000  
R10  21893418.996 8                     -3046.212          26.000                                                                  
R11  22925742.402 2 122508202.808 3      -708.865          37.000    22925751.192 4  95284185.852 5      -550.654          33.000  
E 5  23331598.983 1 122608396.453 2      -137.261          40.000    23331614.487 1  93946754.279 3      -104.631          35.000  
C19  25546378.594 1 133026713.793 4       769.055          34.000                                                                  
> 2024  1 10 15 45 41.0030000  0 13                     
G 3  23915081.873 1 125674461.661 3     -1046.826          36.000    23915088.006 2               7      -815.783          30.000  
G 4  25699073.356 4               6      1947.414          29.000    25699071.961 9                      1515.275          18.000  
G16  21647666.723 2 113759365.954 5      -357.208          34.000                                                                  
G26  21341144.043 1 112148468.676 2     -2348.388          42.000    21341151.859 2  87388465.367 3     -1829.833          35.000  
G28  23312810.706 1 122509656.337 4     -2016.007          34.000    23312820.357 1  95462098.858 3     -1571.225          37.000  
G31  22741971.110 1 119509846.896 3     -1633.071          37.000    22741950.758 9                     -1273.488          18.000  
G32  22964653.444 1 120680111.382 4     -3536.390          34.000    22964655.168 8                     -2756.207          25.000  
R 7  20315737.091 4                     -2734.893          27.000    20315761.108 2  84584793.190 4     -2126.930          33.000  
R 8  21411385.798 4 114657028.320 4      1107.832          33.000    21411410.877 9                       858.930          22.000  
R10  21893989.289 8                     -3046.282          27.000                                                                  
R11  22925875.145 2 122508911.858 3      -709.368          38.000    22925883.955 4  95284737.366 5      -551.575          33.000  
E 5  23331624.975 1 122608533.516 2      -137.093          39.000    23331640.482 1  93946859.330 3      -105.058          36.000  
C19  25546230.884 1 133025944.881 5       768.402          33.000                                                                  
> 2024  1 10 15 45 42.0030000  0 13                     
G 3  23915280.873 1 125675508.764 4     -1047.316          36.000    23915287.424 2               7      -816.282          30.000  
G 4  25698703.265 4               6      1947.586          29.000    25698700.956 9                      1515.194          18.000  
G16  21647734.561 1 113759723.160 4      -357.336          34.000                                                                  
G26  21341590.881 1 112150817.141 2     -2348.652          42.000    21341598.895 1  87390295.339 3     -1830.142          35.000  
G28  23313194.465 1 122511672.588 4     -2016.154          34.000    23313203.984 1  95463669.945 3     -1570.926          37.000  
G31  22742281.963 1 119511479.481 3     -1632.340          38.000    22742261.220 9                     -1274.792          19.000  
G32  22965326.425 1 120683648.102 4     -3536.515          34.000    22965327.864 8                     -2755.884          25.000  
R 7  20316248.281 4                     -2738.053          26.000    20316272.001 2  84586920.355 4     -2127.263          33.000  
R 8  21411178.766 2 114655921.320 4      1106.682          34.000    21411204.623 9                       857.949          20.000  
R10  21894559.462 8                     -3046.192          27.000                                                                  
R11  22926007.880 2 122509620.995 2      -709.245          38.000    22926016.806 4  95285288.914 5      -550.818          32.000  
E 5  23331651.288 1 122608670.631 2      -137.217          40.000    23331666.570 1  93946964.373 3      -104.503          36.000  
C19  25546083.321 1 133025176.094 4       768.395          33.000                                                                  
> 2024  1 10 15 45 43.0030000  0 13                     
G 3  23915479.823 1 125676556.121 4     -1047.349          35.000    23915486.741 2               7      -816.069          30.000  
G 4  25698332.142 4               6      1947.725          29.000    25698332.328 9                      1506.466          18.000  
G16  21647802.414 1 113760080.691 4      -357.922          34.000                                                                  
G26  21342037.818 1 112153165.754 2     -2348.762          42.000    21342045.945 1  87392125.430 3     -1830.416          35.000  
G28  23313578.128 1 122513688.612 4     -2016.180          34.000    23313587.570 1  95465240.861 3     -1570.975          37.000  
G31  22742592.627 1 119513111.814 2     -1632.048          38.000    22742571.854 9                     -1268.269          20.000  
G32  22965999.304 1 120687185.043 4     -3536.742          34.000    22966000.517 8                     -2756.072          25.000  
R 7  20316761.806 8                     -2735.833          26.000    20316782.939 2  84589048.009 4     -2128.295          33.000  
R 8  21410971.881 2 114654814.682 4      1106.599          34.000    21410998.787 9                       861.886          20.000  
R10  21895130.930 8               7     -3045.972          28.000                                                                  
R11  22926140.707 2 122510330.248 3      -709.288          38.000    22926149.556 4  95285840.564 5      -551.303          33.000  
E 5  23331677.698 1 122608807.759 2      -137.030          40.000    23331692.808 1  93947069.477 3      -105.267          36.000  
C19  25545935.561 1 133024407.411 5       768.608          33.000                                                                  
> 2024  1 10 15 45 44.0030000  0 13                     
G 3  23915678.986 1 125677603.923 4     -1047.906          35.000    23915686.218 2               6      -815.737          30.000  
G 4  25697961.165 4               7      1948.033          30.000    25697961.661 9                      1521.189          19.000  
G16  21647870.186 1 113760438.622 4      -358.734          34.000                                                                  
G26  21342484.922 1 112155514.633 2     -2348.943          42.000    21342493.038 1  87393955.697 3     -1830.226          36.000  
G28  23313961.859 1 122515704.476 4     -2015.716          34.000    23313971.186 1  95466811.627 3     -1570.449          37.000  
G31  22742903.369 1 119514744.029 2     -1632.213          38.000    22742880.660 9                     -1265.610          20.000  
G32  22966672.285 1 120690722.286 4     -3536.869          34.000    22966672.448 8                     -2756.690          24.000  
R 7  20317273.581 9                     -2735.944          26.000    20317294.032 2  84591176.118 4     -2127.967          33.000  
R 8  21410764.931 4 114653708.549 4      1105.764          34.000    21410791.966 9                       863.663          19.000  
R10  21895702.417 8               7     -3046.239          29.000                                                                  
R11  22926273.674 2 122511039.657 3      -709.373          38.000    22926282.428 4  95286392.362 5      -552.698          33.000  
E 5  23331704.101 1 122608945.004 2      -137.394          40.000    23331718.792 1  93947174.641 3      -105.543          36.000  
C19  25545787.951 1 133023638.961 4       768.712          33.000                                                                  
> 2024  1 10 15 45 45.0030000  0 13                     
G 3  23915878.098 1 125678651.926 4     -1047.617          35.000    23915885.635 2               6      -816.084          30.000  
G 4  25697590.222 4               7      1948.589          30.000    25697591.790 9                      1532.278          19.000  
G16  21647937.969 1 113760796.758 4      -358.362          34.000                                                                  
G26  21342931.883 1 112157863.580 2     -2349.080          42.000    21342940.305 1  87395786.063 3     -1830.383          36.000  
G28  23314345.631 1 122517720.013 3     -2015.370          35.000    23314354.710 1  95468382.199 3     -1570.856          36.000  
G31  22743214.033 1 119516375.903 3     -1631.612          37.000    22743191.038 9                     -1265.164          20.000  
G32  22967345.216 1 120694259.685 4     -3537.336          33.000    22967344.944 8                     -2754.396          24.000  
R 7  20317784.781 9                     -2737.899          26.000    20317805.309 2  84593304.665 4     -2128.466          34.000  
R 8  21410557.986 4 114652602.746 4      1105.268          34.000    21410585.267 9                       853.023          17.000  
R10  21896271.344 8               6     -3045.831          31.000                                                                  
R11  22926406.608 2 122511749.095 2      -709.858          38.000    22926415.196 4  95286944.126 5      -551.820          33.000  
E 5  23331730.094 1 122609082.193 2      -137.117          40.000    23331745.174 1  93947279.761 3      -105.221          36.000  
C19  25545640.256 1 133022870.588 4       768.013          34.000                                                                  
> 2024  1 10 15 45 46.0030000  0 13                     
G 3  23916077.335 1 125679700.227 4     -1048.328          35.000    23916085.130 2                      -815.641          30.000  
G 4  25697219.333 2               6      1947.646          30.000    25697220.699 9                      1512.702          18.000  
G16  21648006.001 1 113761155.176 4      -358.606          34.000                                                                  
G26  21343378.894 1 112160212.652 2     -2349.109          42.000    21343387.461 1  87397616.501 3     -1830.135          36.000  
G28  23314729.160 1 122519735.264 4     -2014.735          35.000    23314738.221 1  95469952.531 3     -1570.438          36.000  
G31  22743524.909 1 119518007.506 3     -1631.524          37.000    22743502.397 9                     -1272.604          21.000  
G32  22968018.212 2 120697797.232 5     -3538.197          32.000    22968019.064 8                     -2756.490          25.000  
R 7  20318298.609 9                     -2738.375          25.000    20318316.506 2  84595433.633 4     -2128.718          34.000  
R 8  21410351.386 2 114651497.290 4      1105.370          34.000    21410380.081 9                       852.330          16.000  
R10  21896843.230 8               6     -3044.784          31.000                                                                  
R11  22926539.497 2 122512458.553 3      -709.375          38.000    22926548.213 4  95287495.942 5      -551.938          33.000  
E 5  23331756.362 1 122609219.369 2      -136.911          40.000    23331771.248 1  93947384.858 3      -105.075          36.000  
C19  25545492.592 1 133022102.252 5       768.486          34.000                                                                  
> 2024  1 10 15 45 47.0040000  0 13                     
G 3  23916276.758 1 125680749.832 4     -1048.454          35.000    23916285.010 2               7      -815.701          30.000  
G 4  25696848.060 2               6      1949.198          30.000    25696849.796 9                      1515.201          18.000  
G16  21648074.158 1 113761514.240 4      -359.083          34.000                                                                  
G26  21343826.326 1 112162564.180 1     -2349.396          42.000    21343835.184 1  87399448.886 3     -1831.013          36.000  
G28  23315113.061 1 122521752.308 4     -2015.594          35.000    23315121.992 1  95471524.190 3     -1569.719          36.000  
G31  22743835.765 1 119519640.438 3     -1631.000          37.000    22743813.492 9                     -1268.092          22.000  
G32  22968692.011 2 120701338.449 5     -3537.771          31.000    22968693.672 8                     -2757.826          24.000  
R 7  20318810.280 9                     -2738.501          25.000    20318828.452 2  84597565.179 4     -2129.453          34.000  
R 8  21410144.757 2 114650391.105 4      1104.763          34.000    21410174.654 9                       852.617          13.000  
R10  21897417.020 8               7     -3044.806          31.000                                                                  
R11  22926672.605 2 122513168.796 2      -709.604          38.000    22926681.438 4  95288048.342 5      -551.768          33.000  
E 5  23331782.832 1 122609356.670 2      -137.302          40.000    23331797.240 1  93947490.063 3      -105.507          36.000  
C19  25545344.826 2 133021333.243 4       767.897          34.000                                                                  
> 2024  1 10 15 45 48.0040000  0 13                     
G 3  23916476.009 1 125681798.819 4     -1049.265          35.000    23916484.816 2               7      -817.034          31.000  
G 4  25696477.077 2               6      1949.594          29.000    25696478.539 9                      1513.702          18.000  
G16  21648142.167 2 113761873.404 4      -359.623          33.000                                                                  
G26  21344273.353 1 112164913.651 2     -2349.618          42.000    21344282.442 1  87401279.615 3     -1830.786          36.000  
G28  23315496.515 1 122523767.134 4     -2014.501          35.000    23315505.329 1  95473094.244 3     -1570.121          36.000  
G31  22744146.457 1 119521271.633 3     -1630.775          37.000    22744122.813 9                     -1271.513          22.000  
G32  22969365.020 2 120704876.483 5     -3537.630          32.000    22969365.318 9                     -2757.823          23.000  
R 7  20319321.380 9                     -2737.865          25.000    20319340.014 2  84599695.185 4     -2130.871          34.000  
R 8  21409938.298 2 114649286.536 3      1104.838          35.000    21409969.661 9                       848.175          12.000  
R10  21897988.813 8               7     -3045.667          31.000                                                                  
R11  22926805.642 2 122513878.528 2      -710.057          39.000    22926814.355 4  95288600.394 5      -552.636          33.000  
E 5  23331809.049 1 122609493.954 2      -137.446          40.000    23331823.520 1  93947595.256 3      -105.292          35.000  
C19  25545197.435 1 133020565.245 4       767.660          34.000                                                                  
> 2024  1 10 15 45 49.0040000  0 13                     
G 3  23916675.317 1 125682848.165 4     -1050.245          34.000    23916684.483 2               6      -817.988          31.000  
G 4  25696106.136 2               6      1949.977          29.000    25696107.637 9                      1515.381          19.000  
G16  21648210.221 2 113762232.896 5      -360.316          33.000                                                                  
G26  21344720.464 1 112167263.295 1     -2349.664          42.000    21344729.676 1  87403110.522 3     -1830.725          36.000  
G28  23315879.942 1 122525781.822 4     -2014.751          35.000    23315888.612 1  95474664.121 3     -1570.304          36.000  
G31  22744457.110 1 119522902.664 3     -1631.486          36.000    22744432.577 9                     -1272.121          22.000  
G32  22970038.202 2 120708414.826 5     -3538.151          32.000    22970038.765 8                     -2757.294          23.000  
R 7                                                                  20319851.816 2  84601825.615 4     -2130.622          33.000  
R 8  21409732.286 2 114648182.394 3      1104.055          35.000    21409766.015 9                       848.175          10.000  
R10  21898559.785 8               6     -3045.831          31.000                                                                  
R11  22926938.562 1 122514588.383 2      -709.859          39.000    22926947.068 4  95289152.503 5      -551.759          33.000  
E 5  23331835.265 1 122609631.294 2      -137.415          40.000    23331849.622 1  93947700.496 3      -105.450          36.000  
C19  25545049.844 1 133019797.414 4       767.363          33.000                                                                  
> 2024  1 10 15 45 50.0040000  0 13                     
G 3  23916874.693 2 125683897.824 5     -1049.886          34.000    23916884.199 2               7      -818.186          30.000  
G 4  25695735.100 4               7      1950.098          30.000    25695736.678 9                      1515.038          19.000  
G16  21648278.394 1 113762592.697 4      -359.813          34.000                                                                  
G26  21345167.735 1 112169613.174 2     -2349.825          42.000    21345176.996 1  87404941.600 3     -1831.247          36.000  
G28  23316263.378 1 122527796.327 4     -2014.021          35.000    23316271.890 1  95476233.849 3     -1569.971          36.000  
G31  22744767.850 2 119524533.441 5     -1630.740          34.000    22744742.723 9                     -1275.908          23.000  
G32  22970711.376 2               6     -3538.824          31.000    22970711.747 8                     -2758.374          23.000  
R 7                                                                  20320363.705 2  84603956.587 4     -2131.293          33.000  
R 8  21409526.106 2 114647078.662 3      1104.116          35.000    21409560.250 9                       848.054          11.000  
R10  21899130.827 4 116734701.01615     -3045.459          32.000                                                                  
R11  22927071.552 1 122515298.418 2      -709.981          39.000    22927079.767 4  95289704.765 5      -552.690          33.000  
E 5  23331861.102 1 122609768.707 2      -137.349          40.000    23331875.707 1  93947805.794 3      -105.523          36.000  
C19  25544902.381 1 133019029.732 4       767.742          34.000                                                                  
> 2024  1 10 15 45 51.0040000  0 13                     
G 3  23917074.102 2 125684947.908 5     -1050.329          33.000    23917084.176 2               7      -817.369          30.000  
G 4  25695363.763 2               6      1950.243          29.000    25695365.844 9                      1514.231          19.000  
G16  21648346.617 2 113762952.965 5      -359.864          33.000                                                                  
G26  21345614.847 1 112171963.334 1     -2350.394          42.000    21345624.396 1  87406772.871 3     -1831.130          36.000  
G28  23316646.780 1 122529810.724 4     -2014.513          35.000    23316655.099 1  95477803.471 3     -1569.271          35.000  
G31  22745078.380 2 119526164.139 5     -1630.694          33.000    22745052.893 9                     -1270.098          23.000  
G32  22971384.619 2               6     -3539.986          31.000    22971384.510 8                     -2757.351          23.000  
R 7  20320856.330 9                     -2740.409          24.000    20320875.678 2  84606088.106 4     -2131.599          33.000  
R 8  21409320.253 2 114645975.552 4      1103.116          36.000    21409352.780 9                       865.211          11.000  
R10  21899702.512 4 116737746.072 5     -3045.007          32.000                                                                  
R11  22927204.603 1 122516008.644 2      -710.183          39.000    22927212.963 4  95290257.153 5      -552.419          33.000  
E 5  23331887.158 1 122609906.269 2      -137.623          40.000    23331901.928 1  93947911.175 3      -105.211          36.000  
C19  25544754.974 1 133018262.285 4       767.800          33.000                                                                  
> 2024  1 10 15 45 52.0040000  0 13                     
G 3  23917273.739 1 125685998.331 4     -1050.323          34.000    23917284.022 2                      -817.953          30.000  
G 4  25694992.740 2               7      1950.601          29.000    25694995.646 9                      1509.491          18.000  
G16  21648414.902 2 113763313.608 4      -360.385          33.000                                                                  
G26  21346062.121 1 112174313.682 1     -2350.552          42.000    21346071.814 1  87408604.318 3     -1831.508          36.000  
G28  23317030.127 1 122531824.895 3     -2014.022          35.000    23317038.335 1  95479372.973 3     -1569.303          35.000  
G31  22745389.073 2 119527794.656 5     -1631.107          32.000    22745364.188 9                     -1263.842          23.000  
G32  22972057.791 2               7     -3538.477          30.000    22972059.582 9                     -2758.421          24.000  
R 7  20321368.744 9                     -2740.685          25.000    20321387.738 2  84608220.117 4     -2131.751          33.000  
R 8  21409114.562 2 114644872.853 3      1102.134          36.000                                                                  
R10  21900273.870 4 116740791.046 5     -3044.983          32.000                                                                  
R11  22927337.744 1 122516718.998 2      -710.795          40.000    22927346.161 4  95290809.699 4      -553.109          33.000  
E 5  23331913.378 1 122610043.896 2      -137.874          40.000    23331928.387 1  93948016.634 3      -105.450          36.000  
C19  25544607.496 2 133017495.042 5       767.427          32.000                                                                  
> 2024  1 10 15 45 53.0040000  0 13                     
G 3  23917473.293 2 125687049.116 4     -1051.301          33.000    23917484.008 2               7      -819.456          30.000  
G 4  25694621.487 2               7      1950.967          29.000    25694624.965 9                      1525.458          17.000  
G16  21648483.347 1 113763674.564 4      -361.242          35.000                                                                  
G26  21346509.412 1 112176664.182 2     -2350.480          42.000    21346519.289 1  87410435.870 3     -1831.656          36.000  
G28  23317413.404 1 122533838.865 4     -2013.727          36.000    23317421.521 1  95480942.268 3     -1569.373          35.000  
G31  22745699.856 2               6     -1630.079          31.000    22745676.000 9                     -1270.769          23.000  
G32  22972731.364 2 120722570.921 5     -3540.081          30.000    22972733.625 8                     -2758.402          24.000  
R 7  20321883.358 9                     -2740.950          26.000    20321899.851 2  84610352.566 5     -2132.040          33.000  
R 8  21408908.882 2 114643770.529 3      1101.992          36.000                                                                  
R10  21900844.997 4 116743835.882 5     -3045.459          32.000                                                                  
R11  22927470.906 1 122517429.443 2      -710.621          40.000    22927479.033 4  95291362.232 4      -552.314          33.000  
E 5  23331939.590 1 122610181.529 2      -137.735          41.000    23331954.568 1  93948122.092 3      -105.551          37.000  
C19  25544460.169 2 133016727.894 5       767.267          31.000                                                                  
> 2024  1 10 15 45 54.0040000  0 13                     
G 3  23917672.994 2 125688100.286 5     -1051.650          34.000    23917684.037 2               7      -819.294          30.000  
G 4  25694250.557 4               7      1949.773          30.000    25694255.293 9                      1525.321          17.000  
G16  21648551.864 1 113764035.954 4      -361.731          35.000                                                                  
G26  21346956.901 1 112179014.976 2     -2350.884          42.000    21346966.747 1  87412267.660 3     -1831.944          36.000  
G28  23317796.648 1 122535852.698 3     -2013.576          35.000    23317804.656 1  95482511.488 3     -1569.443          35.000  
G31  22746010.664 4               7     -1629.816          30.000    22745986.168 9                     -1269.127          23.000  
G32  22973404.529 4               7     -3540.972          30.000    22973405.702 8                     -2759.022          23.000  
R 7  20322397.746 9                     -2742.476          27.000    20322412.175 2  84612485.646 4     -2133.397          33.000  
R 8  21408703.365 2 114642668.751 3      1101.723          37.000                                                                  
R10  21901416.267 4               6     -3044.720          32.000                                                                  
R11  22927604.017 1 122518140.127 2      -710.860          40.000    22927611.984 4  95291914.952 5      -552.411          33.000  
E 5  23331965.944 1 122610319.324 2      -137.900          41.000    23331980.933 1  93948227.673 3      -105.617          37.000  
C19  25544312.599 2               6       766.967          31.000                                                                  
> 2024  1 10 15 45 55.0040000  0 13                     
G 3  23917872.855 1 125689151.818 4     -1051.866          34.000    23917884.224 2               7      -819.911          30.000  
G 4  25693879.522 2 135022217.869 5      1950.442          31.000    25693884.125 9                      1524.735          16.000  
G16  21648620.454 2 113764397.696 5      -362.326          32.000                                                                  
G26  21347404.241 1 112181365.955 2     -2351.391          40.000    21347414.300 1  87414099.570 3     -1832.227          36.000  
G28  23318179.844 1 122537866.346 3     -2014.532          32.000    23318187.750 1  95484080.538 3     -1569.443          35.000  
G31  22746321.077 2               7     -1629.777          29.000    22746296.350 9                     -1272.643          24.000  
G32  22974078.211 4               6     -3540.852          31.000    22974079.927 8                     -2758.902          23.000  
R 7  20322911.772 8               7     -2743.079          28.000    20322924.619 2  84614619.175 5     -2134.399          33.000  
R 8  21408497.946 2 114641567.434 3      1100.740          37.000                                                                  
R10  21901987.337 4               6     -3044.543          32.000                                                                  
R11  22927737.244 1 122518850.913 2      -711.225          39.000    22927745.180 4  95292467.788 5      -552.820          33.000  
E 5  23331992.083 1 122610457.162 2      -138.091          38.000    23332007.283 1  93948333.291 3      -105.814          37.000  
C19  25544165.096 2               6       766.863          31.000                                                                  
> 2024  1 10 15 45 56.0040000  0 13                     
G 3  23918072.747 1 125690203.815 4     -1052.354          33.000    23918084.511 4                      -819.726          30.000  
G 4  25693508.249 2               6      1951.511          30.000    25693510.483 9                      1520.680          17.000  
G16  21648689.291 2 113764759.818 4      -362.511          32.000                                                                  
G26  21347851.669 1 112183717.208 2     -2351.238          42.000    21347861.765 1  87415931.732 4     -1832.274          36.000  
G28  23318563.070 1 122539879.864 4     -2013.533          33.000    23318570.874 1  95485649.498 3     -1568.339          35.000  
G31  22746631.272 2               6     -1629.290          29.000    22746607.146 9                     -1266.195          24.000  
G32  22974751.900 2               6     -3540.250          30.000    22974754.805 9                     -2758.172          23.000  
R 7  20323424.623 8 108792866.79215     -2744.333          28.000    20323437.181 2  84616753.267 5     -2134.328          33.000  
R 8  21408292.583 2 114640466.628 3      1100.698          37.000                                                                  
R10  21902558.626 4               6     -3044.312          32.000                                                                  
R11  22927870.503 2 122519561.935 2      -710.872          39.000    22927878.019 4  95293020.861 5      -553.782          33.000  
E 5  23332018.154 1 122610595.154 2      -138.053          39.000    23332033.515 1  93948439.027 3      -105.498          37.000  
C19  25544017.708 2 133014427.830 5       766.084          32.000                                                                  
> 2024  1 10 15 45 57.0040000  0 13                     
G 3  23918272.674 1 125691256.079 4     -1052.125          34.000    23918284.842 2               7      -820.534          29.000  
G 4  25693137.090 2               6      1951.514          31.000    25693137.052 9                      1528.523          18.000  
G16  21648758.144 2 113765122.339 5      -362.195          34.000                                                                  
G26  21348299.056 1 112186068.672 1     -2351.378          43.000    21348309.310 1  87417764.057 3     -1832.623          36.000  
G28  23318946.336 1 122541893.223 4     -2013.246          34.000    23318953.860 1  95487218.362 4     -1568.762          35.000  
G31  22746941.658 2               7     -1629.882          28.000    22746917.062 9                     -1269.112          24.000  
G32  22975425.455 2               6     -3541.763          31.000    22975428.841 8                     -2757.036          23.000  
R 7  20323940.075 8               6     -2744.731          30.000    20323949.916 2  84618887.895 5     -2135.024          33.000  
R 8  21408087.261 2 114639366.327 3      1099.974          37.000                                                                  
R10  21903129.565 4               6     -3045.166          31.000                                                                  
R11  22928003.820 1 122520273.098 2      -711.013          40.000    22928011.176 4  95293573.982 5      -553.871          32.000  
E 5  23332044.451 1 122610733.208 2      -138.136          40.000    23332059.999 1  93948544.803 3      -105.451          37.000  
C19  25543870.315 2 133013661.443 5       766.898          32.000                                                                  
> 2024  1 10 15 45 58.0040000  0 14                     
G 3  23918472.757 1 125692308.589 4     -1052.525          34.000    23918485.179 2               7      -820.194          30.000  
G 4  25692765.798 2 135016363.316 5      1951.659          31.000    25692765.151 9                      1528.297          18.000  
G16  21648826.885 1 113765485.009 4      -362.079          34.000                                                                  
G26  21348746.592 1 112188420.148 2     -2351.141          43.000    21348756.890 1  87419596.359 3     -1832.208          36.000  
G28  23319329.578 1 122543906.162 4     -2012.279          35.000    23319336.862 1  95488786.873 4     -1568.212          35.000  
G29  25420105.275 9               7     -3270.806          27.000                                                                  
G31  22747251.759 2                     -1629.456          26.000    22747227.715 9                     -1265.489          24.000  
G32  22976099.258 2               6     -3539.863          31.000    22976103.157 9                     -2755.828          22.000  
R 7  20324452.089 8               6     -2744.469          30.000    20324462.796 2  84621022.837 5     -2135.131          33.000  
R 8  21407881.947 2 114638266.231 2      1100.186          38.000                                                                  
R10  21903700.696 4               7     -3043.567          31.000                                                                  
R11  22928137.094 1 122520984.170 2      -710.708          40.000    22928143.958 4  95294127.013 5      -552.939          32.000  
E 5  23332070.508 1 122610871.131 2      -137.537          40.000    23332086.339 1  93948650.485 3      -105.365          36.000  
C19  25543722.839 2               6       766.851          31.000                                                                  
> 2024  1 10 15 45 59.0040000  0 14                     
G 3  23918672.923 1 125693361.273 4     -1052.550          34.000    23918685.486 2               6      -820.379          30.000  
G 4  25692394.507 2 135014410.996 5      1952.677          32.000    25692393.189 9                      1516.098          19.000  
G16  21648895.838 1 113765847.927 4      -362.817          35.000                                                                  
G26  21349194.073 1 112190771.701 2     -2351.666          43.000    21349204.424 1  87421428.737 3     -1832.656          36.000  
G28  23319712.781 1 122545918.822 4     -2012.627          35.000    23319719.728 2  95490355.168 4     -1568.732          35.000  
G29  25420736.285 9               7     -3271.835          28.000                                                                  
G31  22747561.628 4                     -1629.332          25.000    22747538.123 9                     -1267.808          23.000  
G32  22976773.092 4               6     -3540.750          31.000    22976777.524 9                     -2763.135          22.000  
R 7  20324966.862 8               6     -2746.536          31.000    20324975.874 2  84623158.156 5     -2135.030          33.000  
R 8  21407676.620 2 114637166.486 2      1099.708          38.000                                                                  
R10  21904271.677 4               6     -3044.489          31.000                                                                  
R11  22928270.314 1 122521695.291 2      -711.438          40.000    22928276.675 4               6      -553.669          32.000  
E 5  23332096.775 1 122611009.002 2      -138.021          40.000    23332112.654 1  93948756.119 3      -105.358          37.000  
C19  25543575.646 2               6       766.530          32.000                                                                  
> 2024  1 10 15 46  0.0040000  0 14                     
G 3  23918873.139 1 125694414.228 4     -1053.515          34.000    23918885.834 2               7      -820.338          30.000  
G 4  25692023.161 4               6      1952.476          32.000    25692023.272 9                      1512.081          20.000  
G16  21648964.803 1 113766211.072 4      -363.375          34.000                                                                  
G26  21349641.543 1 112193123.328 1     -2351.716          43.000    21349651.969 1  87423261.161 3     -1832.271          36.000  
G28  23320095.915 1 122547931.120 4     -2012.197          34.000    23320102.743 1  95491923.162 3     -1567.233          35.000  
G29  25421363.310 9               7     -3271.406          29.000                                                                  
G31  22747871.397 4                     -1628.105          26.000    22747849.197 9                     -1270.471          24.000  
G32  22977446.979 2 120747353.652 5     -3540.914          32.000    22977452.628 9                     -2762.648          21.000  
R 7  20325480.615 8 108803847.615 5     -2745.639          31.000    20325488.808 2  84625293.948 5     -2135.904          33.000  
R 8  21407471.648 2 114636067.043 2      1099.162          39.000                                                                  
R10  21904842.563 4               6     -3044.647          31.000                                                                  
R11  22928403.542 1 122522406.378 2      -711.217          40.000    22928409.776 4               6      -553.182          32.000  
E 5  23332122.922 1 122611146.805 2      -137.774          40.000    23332138.880 1  93948861.720 3      -105.526          37.000  
C19  25543428.246 2 133011362.595 5       765.901          32.000                                                                  
> 2024  1 10 15 46  1.0040000  0 14                     
G 3  23919073.347 1 125695467.441 4     -1053.502          34.000    23919086.178 2               6      -820.964          30.000  
G 4  25691651.559 4               7      1951.847          31.000    25691653.505 9                      1517.661          20.000  
G16  21649033.941 1 113766574.566 5      -363.877          33.000                                                                  
G26  21350089.011 1 112195475.101 1     -2352.062          43.000    21350099.588 1  87425093.721 3     -1832.807          36.000  
G28  23320478.891 1 122549943.197 4     -2011.471          34.000    23320485.558 1  95493491.046 3     -1567.723          35.000  
G29  25421982.533 9               6     -3271.817          29.000                                                                  
G31  22748181.043 2                     -1628.093          27.000    22748160.204 9                     -1270.946          25.000  
G32  22978121.185 2 120750894.779 5     -3541.257          31.000    22978126.212 9                     -2752.137          21.000  
R 7  20325995.489 8 108806594.219 5     -2747.406          32.000    20326002.062 2  84627430.156 4     -2136.414          33.000  
R 8  21407266.575 2 114634968.009 2      1098.575          39.000                                                                  
R10  21905413.235 4               7     -3043.982          30.000                                                                  
R11  22928536.699 1 122523117.569 2      -711.278          40.000    22928542.788 4  95295786.347 5      -553.532          31.000  
E 5  23332149.083 1 122611284.630 2      -137.854          39.000    23332165.015 1  93948967.335 3      -105.512          37.000  
C19  25543281.082 2               6       765.426          32.000                                                                  
> 2024  1 10 15 46  2.0040000  0 14                     
G 3  23919273.600 1 125696521.057 4     -1053.595          34.000    23919286.664 2               6      -820.499          30.000  
G 4  25691279.713 4               6      1953.024          30.000    25691281.301 9                      1524.968          21.000  
G16  21649103.154 2 113766938.422 5      -363.677          33.000                                                                  
G26  21350536.542 1 112197827.125 1     -2351.953          43.000    21350547.128 1  87426926.493 3     -1833.246          36.000  
G28  23320861.742 2 122551955.132 5     -2011.389          33.000    23320868.431 1  95495058.778 4     -1567.311          35.000  
G29  25422606.616 9               6     -3272.278          29.000                                                                  
G31  22748490.746 2                     -1627.992          27.000    22748471.711 9                     -1268.931          24.000  
G32  22978795.190 2               6     -3540.948          31.000    22978799.897 9                     -2754.461          20.000  
R 7  20326509.074 8 108809341.424 5     -2747.043          33.000    20326515.291 2  84629566.848 4     -2136.503          33.000  
R 8  21407061.571 2 114633869.441 2      1098.456          39.000                                                                  
R10  21905984.152 4                     -3043.213          30.000                                                                  
R11  22928670.106 1 122523828.933 2      -711.355          40.000    22928675.846 4               7      -552.527          31.000  
E 5  23332175.359 1 122611422.560 2      -137.753          39.000    23332191.227 1  93949073.013 3      -105.435          37.000  
C19  25543133.932 2 133009830.519 5       765.808          32.000                                                                  
> 2024  1 10 15 46  3.0040000  0 14                     
G 3  23919474.052 1 125697574.974 4     -1053.857          34.000    23919487.327 2               7      -821.124          30.000  
G 4  25690908.019 2               6      1953.922          30.000    25690910.076 9                      1523.525          21.000  
G16  21649172.409 2 113767302.567 5      -364.324          32.000                                                                  
G26  21350984.155 1 112200179.327 1     -2352.613          43.000    21350994.742 1  87428759.332 3     -1832.672          36.000  
G28  23321244.618 2               6     -2011.691          32.000    23321251.234 1  95496626.338 4     -1567.705          35.000  
G29  25423232.843 8                     -3272.485          30.000                                                                  
G31  22748800.617 2                     -1628.420          26.000    22748781.807 9                     -1268.153          25.000  
G32  22979469.089 2               7     -3543.690          30.000    22979474.262 9                     -2766.976          18.000  
R 7  20327022.915 4 108812089.317 4     -2748.439          34.000    20327028.437 2  84631704.129 5     -2137.968          33.000  
R 8  21406856.650 2 114632771.313 2      1097.656          39.000                                                                  
R10  21906555.151 4                     -3044.232          30.000                                                                  
R11  22928803.413 1 122524540.401 2      -711.798          40.000    22928808.782 4               7      -553.154          30.000  
E 5  23332201.653 1 122611560.527 2      -137.971          39.000    23332217.605 1  93949178.748 3      -105.977          37.000  
C19  25542986.863 2 133009064.736 5       766.061          32.000                                                                  
> 2024  1 10 15 46  4.0040000  0 14                     
G 3  23919674.393 1 125698629.213 4     -1053.980          34.000    23919687.831 2               6      -821.473          30.000  
G 4  25690536.404 2               6      1954.271          30.000    25690538.976 9                      1526.660          22.000  
G16  21649241.689 2               7      -363.431          31.000                                                                  
G26  21351431.745 1 112202531.665 1     -2352.313          43.000    21351442.416 1  87430592.320 3     -1832.811          36.000  
G28  23321627.388 2 122555978.353 5     -2011.259          32.000    23321634.056 1  95498193.718 3     -1567.594          35.000  
G29  25423857.957 8                     -3272.635          30.000                                                                  
G31  22749110.221 2                     -1627.373          26.000    22749091.246 9                     -1269.311          25.000  
G32  22980142.969 4               7     -3541.208          31.000    22980145.750 9                     -2745.318          16.000  
R 7  20327536.598 4 108814837.806 4     -2748.253          34.000    20327541.810 2  84633841.871 5     -2138.063          33.000  
R 8  21406651.803 2 114631673.563 3      1097.633          39.000                                                                  
R10  21907126.113 4                     -3043.250          30.000                                                                  
R11  22928936.827 1 122525251.949 2      -711.738          40.000    22928941.972 4                      -553.800          30.000  
E 5  23332228.098 1 122611698.498 2      -137.696          39.000    23332244.051 1  93949284.457 3      -105.696          37.000  
C19  25542839.909 1 133008299.076 4       765.698          33.000                                                                  
> 2024  1 10 15 46  5.0040000  0 14                     
G 3  23919874.955 1 125699683.562 4     -1054.392          34.000    23919888.460 2               7      -821.859          30.000  
G 4  25690164.640 2               6      1954.477          29.000    25690166.450 9                      1518.821          22.000  
G16  21649311.062 2               7      -365.840          31.000                                                                  
G26  21351879.303 1 112204883.928 1     -2351.978          43.000    21351890.046 1  87432425.270 3     -1832.615          36.000  
G28  23322010.294 2 122557989.336 5     -2010.177          32.000    23322016.742 1  95499760.724 4     -1566.585          35.000  
G29  25424477.662 8                     -3272.264          29.000                                                                  
G31  22749420.118 2                     -1626.909          26.000    22749401.693 9                     -1269.790          25.000  
G32  22980816.950 4               7     -3541.019          29.000    22980817.569 9                     -2763.220          15.000  
R 7  20328050.299 2 108817586.686 4     -2749.342          35.000    20328055.259 2  84635979.850 5     -2138.298          33.000  
R 8  21406447.018 2 114630575.995 2      1097.503          39.000                                                                  
R10  21907696.798 4               7     -3043.018          30.000                                                                  
R11  22929070.098 1 122525963.374 2      -711.318          40.000    22929074.977 4                      -552.067          30.000  
E 5  23332254.277 1 122611836.313 2      -137.950          39.000    23332270.277 1  93949390.031 3      -105.733          37.000  
C19  25542692.872 2 133007533.327 5       765.515          33.000                                                                  
> 2024  1 10 15 46  6.0040000  0 14                     
G 3  23920075.556 1 125700738.384 4     -1054.896          34.000    23920089.226 2               7      -822.600          30.000  
G 4  25689792.675 2               6      1954.905          30.000    25689794.906 9                      1524.358          23.000  
G16  21649380.421 4               7      -365.124          30.000                                                                  
G26  21352327.009 1 112207236.584 1     -2352.879          43.000    21352337.770 1  87434258.518 3     -1833.134          36.000  
G28  23322392.954 2 122560000.308 5     -2010.513          32.000    23322399.427 2  95501327.703 4     -1566.501          35.000  
G29  25425101.426 8               7     -3272.720          29.000                                                                  
G31  22749729.981 2                     -1626.810          27.000    22749711.801 9                     -1268.231          24.000  
G32  22981491.069 2               7     -3542.144          29.000    22981492.518 9                     -2754.464          16.000  
R 7  20328564.088 2 108820336.320 3     -2749.447          35.000    20328568.859 2  84638118.466 4     -2139.026          33.000  
R 8  21406242.238 2 114629479.042 2      1096.622          39.000                                                                  
R10  21908267.459 4               7     -3042.682          30.000                                                                  
R11  22929203.425 1 122526675.058 2      -711.573          40.000    22929207.866 4               7      -553.461          29.000  
E 5  23332280.316 1 122611974.292 2      -137.863          39.000    23332296.681 1  93949495.776 3      -105.584          37.000  
C19  25542545.861 2 133006767.862 5       765.474          32.000                                                                  
> 2024  1 10 15 46  7.0040000  0 14                     
G 3  23920276.206 1 125701793.524 5     -1055.445          33.000    23920289.990 2               7      -821.571          31.000  
G 4  25689420.961 4               6      1954.811          31.000    25689423.505 9                      1517.831          23.000  
G16  21649449.942 2               7      -365.391          29.000                                                                  
G26  21352774.660 1 112209589.379 2     -2352.948          43.000    21352785.508 1  87436091.883 4     -1834.274          36.000  
G28  23322775.709 2 122562011.101 5     -2011.169          32.000    23322781.960 1  95502894.527 3     -1566.612          35.000  
G29  25425723.263 4               7     -3272.849          28.000                                                                  
G31  22750039.564 2               7     -1627.118          30.000    22750021.050 9                     -1265.686          24.000  
G32  22982165.176 2               7     -3542.668          29.000    22982167.295 9                     -2760.618          16.000  
R 7  20329078.050 2 108823086.624 3     -2751.092          36.000    20329082.590 2  84640257.547 5     -2139.639          33.000  
R 8  21406037.588 2 114628382.500 2      1096.316          39.000                                                                  
R10  21908838.141 4                     -3043.088          29.000                                                                  
R11  22929336.735 1 122527386.910 2      -712.227          39.000    22929340.651 4               6      -553.369          29.000  
E 5  23332306.599 1 122612112.326 2      -137.986          39.000    23332323.019 1  93949601.518 3      -105.270          37.000  
C19  25542398.818 2 133006002.609 5       765.062          32.000                                                                  
> 2024  1 10 15 46  8.0040000  0 14                     
G 3  23920476.990 2 125702848.987 5     -1055.314          34.000    23920490.829 2               6      -823.018          31.000  
G 4  25689048.945 4               7      1955.246          31.000    25689051.121 9                      1518.787          23.000  
G16  21649519.548 2               7      -365.599          28.000                                                                  
G26  21353222.361 1 112211942.350 1     -2353.046          43.000    21353233.260 1  87437925.354 3     -1834.003          36.000  
G28  23323158.353 2               6     -2011.109          31.000    23323164.572 1  95504461.193 3     -1566.914          35.000  
G29  25426348.094 8                     -3273.230          27.000                                                                  
G31  22750349.228 4               7     -1627.013          31.000    22750330.150 9                     -1264.425          24.000  
G32  22982839.507 2               6     -3542.526          29.000    22982842.115 9                     -2762.028          17.000  
R 7  20329592.148 2 108825837.441 3     -2751.113          36.000    20329596.451 2  84642397.107 5     -2139.973          33.000  
R 8  21405832.992 2 114627286.391 2      1095.788          39.000                                                                  
R10  21909408.950 4               7     -3042.741          29.000                                                                  
R11  22929470.064 2 122528098.801 2      -711.998          39.000    22929473.672 4               6      -554.029          29.000  
E 5  23332332.754 1 122612250.399 2      -138.156          39.000    23332349.477 1  93949707.329 3      -105.864          37.000  
C19  25542252.005 2 133005237.395 5       765.487          32.000                                                                  
> 2024  1 10 15 46  9.0040000  0 14                     
G 3  23920677.799 1 125703904.895 5     -1055.953          34.000    23920691.728 2               6      -823.574          31.000  
G 4  25688677.029 4               6      1954.614          31.000    25688678.639 9                      1530.369          24.000  
G16  21649589.251 2                      -365.414          28.000                                                                  
G26  21353670.154 1 112214295.622 2     -2353.503          43.000    21353681.122 1  87439759.075 3     -1833.710          36.000  
G28  23323541.033 2 122566032.048 5     -2011.135          32.000    23323547.072 1  95506027.767 3     -1566.448          35.000  
G29  25426972.910 8                     -3274.001          26.000                                                                  
G31  22750658.866 2 119555478.413 5     -1627.069          31.000    22750638.388 9                     -1264.121          24.000  
G32  22983513.689 2               7     -3543.583          28.000    22983516.789 9                     -2763.167          17.000  
R 7  20330106.330 2 108828589.018 3     -2752.144          36.000    20330110.328 2  84644537.156 4     -2139.635          33.000  
R 8  21405628.482 2 114626190.838 2      1094.958          39.000                                                                  
R10  21909979.675 4               6     -3042.779          29.000                                                                  
R11  22929603.425 2 122528810.941 3      -712.509          39.000    22929606.771 4               6      -554.066          29.000  
E 5  23332358.762 1 122612388.642 2      -138.584          39.000    23332375.817 1  93949813.258 3      -106.322          37.000  
C19  25542105.344 2 133004472.510 5       764.318          33.000                                                                  
> 2024  1 10 15 46 10.0040000  0 14                     
G 3  23920878.837 1 125704961.224 4     -1057.106          34.000    23920892.638 2               7      -823.309          30.000  
G 4  25688304.710 4               6      1955.278          31.000    25688307.081 9                      1532.286          23.000  
G16  21649659.131 2                      -367.524          27.000                                                                  
G26  21354118.015 1 112216649.135 2     -2354.012          43.000    21354129.012 1  87441592.984 3     -1834.415          35.000  
G28  23323923.816 2 122568042.341 5     -2010.178          33.000    23323929.652 1  95507594.220 3     -1566.645          35.000  
G29  25427596.786 8                     -3274.272          27.000                                                                  
G31  22750968.590 2 119557104.975 5     -1627.310          32.000    22750947.672 9                     -1269.073          23.000  
G32  22984187.693 4               7     -3544.002          28.000    22984192.668 9                     -2767.851          16.000  
R 7  20330620.584 2 108831341.265 3     -2753.073          36.000    20330624.435 2  84646677.826 5     -2141.618          33.000  
R 8  21405424.167 2 114625095.785 2      1094.693          39.000                                                                  
R10  21910550.308 4               6     -3042.961          30.000                                                                  
R11  22929736.853 2 122529523.268 3      -712.244          39.000    22929739.732 4               7      -554.118          28.000  
E 5  23332385.252 1 122612526.959 2      -138.451          39.000    23332402.346 1  93949919.227 3      -105.948          37.000  
C19  25541958.595 2 133003707.755 5       764.709          33.000                                                                  
> 2024  1 10 15 46 11.0040000  0 14                     
G 3  23921079.822 1 125706017.913 4     -1056.447          34.000    23921093.724 2               6      -822.004          31.000  
G 4  25687932.729 4               6      1956.145          32.000    25687935.554 9                      1521.663          23.000  
G16  21649729.125 2                      -366.749          26.000                                                                  
G26  21354565.914 1 112219002.884 2     -2353.685          44.000    21354576.872 1  87443427.077 3     -1834.357          35.000  
G28  23324306.467 2 122570052.511 5     -2010.125          32.000    23324312.197 1  95509160.556 3     -1566.065          35.000  
G29  25428220.647 4                     -3273.666          26.000                                                                  
G31  22751278.110 2 119558731.315 5     -1626.359          32.000    22751256.808 9                     -1265.297          23.000  
G32  22984862.120 4               7     -3543.309          28.000    22984873.772 9                     -2767.851          13.000  
R 7  20331134.856 2 108834094.183 3     -2752.701          36.000    20331138.624 2  84648818.996 5     -2141.359          33.000  
R 8  21405219.882 2 114624001.259 2      1094.497          40.000                                                                  
R10  21911120.913 4               6     -3042.065          30.000                                                                  
R11  22929870.303 2 122530235.786 2      -712.125          40.000    22929872.953 4                      -554.483          28.000  
E 5  23332411.580 1 122612665.428 2      -138.562          40.000    23332428.431 1  93950025.311 3      -105.656          37.000  
C19  25541811.877 2 133002943.273 5       764.590          33.000                                                                  
> 2024  1 10 15 46 12.0040000  0 14                     
G 3  23921280.843 1 125707074.820 4     -1057.036          34.000    23921294.824 2               6      -823.523          31.000  
G 4  25687560.644 2 134989004.319 5      1956.537          32.000    25687565.056 9                      1520.513          23.000  
G16  21649799.281 2                      -367.824          27.000                                                                  
G26  21355013.808 1 112221356.693 1     -2353.732          43.000    21355024.778 2  87445261.237 4     -1835.085          35.000  
G28  23324688.899 1 122572062.280 5     -2009.078          33.000    23324694.604 1  95510726.645 4     -1565.673          35.000  
G29  25428843.904 4                     -3274.631          26.000                                                                  
G31  22751587.783 2               6     -1626.140          32.000    22751565.436 9                     -1266.595          23.000  
G32  22985537.760 4               7     -3544.258          28.000    22985549.377 9                     -2753.688          13.000  
R 7  20331649.428 2 108836847.638 3     -2753.548          37.000    20331652.955 2  84650960.553 5     -2142.037          33.000  
R 8  21405015.592 2 114622907.005 2      1094.069          40.000                                                                  
R10  21911691.528 4               6     -3041.864          31.000                                                                  
R11  22930003.721 1 122530948.305 2      -712.276          40.000    22930006.081 4                      -554.978          27.000  
E 5  23332437.896 1 122612803.783 2      -138.107          39.000    23332454.894 1  93950131.373 3      -106.312          37.000  
C19  25541665.212 2 133002178.820 4       764.413          34.000                                                                  
> 2024  1 10 15 46 13.0040000  0 14                     
G 3  23921481.929 1 125708131.983 4     -1057.339          34.000    23921496.159 2               6      -823.665          31.000  
G 4  25687188.584 2               6      1956.536          32.000    25687194.292 9                      1524.195          23.000  
G16  21649869.268 4                      -368.589          25.000                                                                  
G26  21355461.772 1 112223710.589 1     -2354.108          43.000    21355472.652 2  87447095.391 4     -1833.932          35.000  
G28  23325071.175 2 122574071.765 5     -2009.242          32.000    23325077.069 1  95512292.484 4     -1565.722          35.000  
G29  25429467.585 4                     -3274.711          26.000                                                                  
G31  22751897.138 2 119561982.971 5     -1625.852          32.000    22751874.730 9                     -1273.417          22.000  
G32  22986210.632 4               7     -3544.367          28.000    22986224.122 9                     -2768.843          12.000  
R 7  20332164.006 2 108839601.615 3     -2754.804          37.000    20332167.344 2  84653102.497 4     -2141.964          33.000  
R 8  21404811.486 1 114621813.074 2      1093.563          39.000                                                                  
R10  21912262.120 4               6     -3042.407          30.000                                                                  
R11  22930137.048 2 122531660.800 3      -712.521          39.000    22930138.881 4                      -554.151          26.000  
E 5  23332464.127 1 122612942.112 3      -138.669          38.000    23332481.292 1  93950237.344 3      -106.187          37.000  
C19  25541518.701 2 133001414.402 4       764.268          34.000                                                                  
> 2024  1 10 15 46 14.0040000  0 14                     
G 3  23921683.111 1 125709189.524 4     -1057.806          33.000    23921697.589 2  97955435.666 5      -823.887          32.000  
G 4  25686816.228 2               7      1956.038          30.000    25686823.321 9                      1524.721          25.000  
G16  21649939.472 4                      -367.991          25.000                                                                  
G26  21355909.687 1 112226064.712 1     -2354.307          42.000    21355920.677 1  87448929.818 4     -1835.363          35.000  
G28  23325453.545 2 122576081.112 5     -2009.303          32.000    23325459.355 2  95513858.212 4     -1565.984          35.000  
G29  25430091.016 4                     -3275.136          26.000                                                                  
G31  22752206.520 2 119563608.478 5     -1625.740          32.000    22752182.987 9                     -1264.951          22.000  
G32  22986884.494 4               7     -3543.974          27.000    22986899.594 9                     -2766.939          11.000  
R 7  20332678.742 2 108842356.232 3     -2755.050          37.000    20332681.913 2  84655244.998 4     -2142.673          33.000  
R 8  21404607.494 2 114620719.603 2      1092.990          38.000                                                                  
R10  21912832.769 4               6     -3042.126          30.000                                                                  
R11  22930270.484 2 122532373.458 3      -712.830          37.000    22930272.092 4                      -554.202          26.000  
E 5  23332490.459 1 122613080.515 2      -138.523          38.000    23332507.634 1  93950343.377 3      -105.864          37.000  
C19  25541372.256 1 133000650.185 3       763.687          34.000                                                                  
> 2024  1 10 15 46 15.0040000  0 14                     
G 3  23921884.227 2 125710247.403 5     -1058.118          33.000    23921898.996 2               6      -823.657          32.000  
G 4  25686444.109 4               6      1956.981          30.000    25686450.631 8                      1522.848          25.000  
G16  21650009.870 4                      -367.409          25.000                                                                  
G26  21356357.654 1 112228419.059 1     -2354.561          43.000    21356368.591 1  87450764.345 4     -1834.327          35.000  
G28  23325835.850 2 122578090.308 5     -2009.062          33.000    23325841.748 1  95515423.801 3     -1565.614          35.000  
G29  25430714.447 4                     -3274.044          25.000                                                                  
G31  22752515.840 2 119565233.801 4     -1625.249          33.000    22752492.421 9                     -1268.076          22.000  
G32  22987557.434 4               7     -3544.723          27.000    22987574.509 9                     -2759.817          12.000  
R 7  20333193.722 2 108845111.547 2     -2755.466          38.000    20333196.573 2  84657388.054 4     -2143.475          33.000  
R 8  21404403.514 2 114619626.608 3      1092.935          40.000                                                                  
R10  21913403.413 4                     -3042.255          31.000                                                                  
R11  22930403.944 2 122533086.292 2      -713.304          37.000    22930405.273 4                      -553.699          25.000  
E 5  23332516.599 1 122613219.027 2      -138.639          39.000    23332534.060 1  93950449.522 3      -106.358          37.000  
C19  25541225.581 1 132999886.110 4       764.722          35.000                                                                  
> 2024  1 10 15 46 16.0040000  0 14                     
G 3  23922085.462 1 125711305.555 4     -1058.496          34.000    23922100.323 2  97957084.524 5      -824.188          32.000  
G 4  25686071.616 2 134981177.390 5      1956.786          31.000    25686078.698 8                      1525.367          24.000  
G16  21650080.361 4                      -368.543          25.000                                                                  
G26  21356805.681 1 112230773.503 2     -2354.464          43.000    21356816.575 2  87452598.988 4     -1835.248          34.000  
G28  23326217.908 1 122580099.169 5     -2007.915          33.000    23326223.999 1  95516989.164 3     -1565.285          36.000  
G29  25431338.447 9                     -3272.128          23.000                                                                  
G31  22752825.056 2 119566858.859 4     -1625.121          33.000    22752801.635 9                     -1268.971          22.000  
G32  22988230.821 8                     -3544.251          26.000    22988249.347 9                     -2760.962          14.000  
R 7  20333708.756 2 108847867.422 2     -2756.176          38.000    20333711.354 2  84659531.510 4     -2144.049          33.000  
R 8  21404199.585 1 114618533.982 2      1092.132          40.000                                                                  
R10  21913974.378 4               7     -3042.889          30.000                                                                  
R11  22930537.385 2 122533799.154 3      -713.164          37.000    22930538.555 4                      -554.229          25.000  
E 5  23332543.040 1 122613357.488 2      -138.500          38.000    23332560.211 1  93950555.602 3      -105.861          37.000  
C19  25541078.881 1 132999122.184 4       763.772          35.000                                                                  
> 2024  1 10 15 46 17.0040000  0 13                     
G 3  23922286.801 1 125712363.939 5     -1058.635          34.000    23922301.895 2  97957909.235 5      -824.484          32.000  
G 4  25685699.134 4               7      1957.606          31.000    25685706.757 8                      1523.369          25.000  
G26  21357253.758 1 112233128.023 1     -2354.273          43.000    21357264.509 2  87454433.694 5     -1834.867          34.000  
G28  23326600.119 1 122582107.769 4     -2007.812          33.000    23326606.173 1  95518554.273 3     -1564.953          36.000  
G29  25431962.526 9                     -3285.816          23.000                                                                  
G31  22753134.092 2 119568483.618 5     -1624.526          33.000    22753109.247 9                     -1262.851          21.000  
G32  22988904.796 9                     -3544.965          25.000    22988923.925 9                     -2766.070          13.000  
R 7  20334223.898 2 108850623.829 3     -2756.669          38.000    20334226.189 2  84661675.354 4     -2143.658          34.000  
R 8  21403995.713 1 114617441.644 2      1092.249          40.000                                                                  
R10  21914545.141 4               7     -3041.760          30.000                                                                  
R11  22930670.799 2 122534512.019 3      -712.819          37.000    22930672.001 4                      -554.968          23.000  
E 5  23332569.416 1 122613495.928 2      -138.350          38.000    23332586.598 1  93950661.675 3      -106.147          37.000  
C19  25540932.120 1 132998358.255 3       763.737          35.000                                                                  
> 2024  1 10 15 46 18.0040000  0 13                     
G 3  23922488.054 1 125713422.464 4     -1058.267          33.000    23922503.587 2  97958734.091 5      -825.299          32.000  
G 4  25685326.531 2 134977261.816 5      1957.526          31.000    25685334.774 8                      1524.945          25.000  
G26  21357701.838 1 112235482.571 2     -2354.776          43.000    21357712.542 2  87456268.397 5     -1834.867          33.000  
G28  23326982.305 1 122584115.955 5     -2008.089          33.000    23326988.349 1  95520119.080 3     -1564.465          36.000  
G29  25432585.738 9                     -3274.605          21.000                                                                  
G31  22753443.022 2 119570107.951 5     -1624.019          33.000    22753416.567 9                     -1266.975          21.000  
G32  22989577.533 9                     -3544.630          24.000    22989599.344 9                     -2766.070          11.000  
R 7  20334739.111 2 108853380.644 2     -2757.141          39.000    20334741.211 2  84663819.560 3     -2144.863          34.000  
R 8  21403792.035 1 114616349.594 2      1092.078          40.000                                                                  
R10  21915115.752 4               7     -3041.040          30.000                                                                  
R11  22930804.154 2 122535224.827 3      -712.359          37.000    22930805.220 9                      -554.557          22.000  
E 5  23332595.762 1 122613634.209 2      -138.240          38.000    23332612.967 1  93950767.627 3      -106.040          37.000  
C19  25540785.403 1 132997594.307 3       763.744          36.000                                                                  
> 2024  1 10 15 46 19.0040000  0 14                     
G 3  23922689.249 2               6     -1059.254          32.000    23922705.292 2  97959559.032 5      -824.412          33.000  
G 4  25684953.664 4               7      1958.562          32.000    25684962.422 8                      1526.390          25.000  
G16  21650290.416 8               7      -369.697          26.000                                                                  
G26  21358149.851 1 112237837.156 2     -2354.531          43.000    21358160.560 2  87458103.159 4     -1835.138          33.000  
G28  23327364.303 2 122586123.861 5     -2008.437          33.000    23327370.464 1  95521683.657 3     -1564.188          36.000  
G29  25433208.340 9                     -3271.659          20.000                                                                  
G31  22753751.773 2 119571731.965 5     -1624.032          33.000    22753725.059 9                     -1261.608          21.000  
G32  22990250.706 9                     -3545.241          25.000                                                                  
R 7  20335254.381 2 108856137.961 2     -2757.859          39.000    20335256.387 2  84665964.117 4     -2144.675          34.000  
R 8  21403588.359 1 114615257.896 2      1091.412          41.000                                                                  
R10  21915686.129 4               7     -3041.451          29.000                                                                  
R11  22930937.609 2 122535937.612 3      -712.625          36.000                                                                  
E 5  23332621.936 1 122613772.418 2      -137.903          38.000    23332639.283 1  93950873.539 3      -106.001          37.000  
C19  25540638.750 1 132996830.415 3       763.970          36.000                                                                  
> 2024  1 10 15 46 20.0040000  0 14                     
G 3  23922890.613 2               7     -1060.035          31.000    23922906.766 2  97960384.368 5      -825.391          33.000  
G 4  25684580.993 2               6      1959.576          31.000    25684590.072 8                      1524.392          26.000  
G16  21650362.716 8               7      -369.570          28.000                                                                  
G26  21358598.016 1 112240192.010 1     -2354.865          43.000    21358608.558 2  87459938.081 4     -1835.003          34.000  
G28  23327746.306 2 122588131.568 5     -2008.083          32.000    23327752.582 1  95523248.115 3     -1564.203          36.000  
G29  25433833.908 9                     -3279.985          20.000                                                                  
G31  22754060.277 2 119573355.798 4     -1623.047          33.000    22754032.459 9                     -1257.333          21.000  
G32  22990927.192 9                     -3545.587          26.000                                                                  
R 7  20335769.858 2 108858895.988 2     -2758.485          39.000    20335771.604 2  84668109.251 4     -2145.239          34.000  
R 8  21403384.720 1 114614166.714 2      1090.908          41.000                                                                  
R10  21916256.410 4               7     -3040.877          29.000                                                                  
R11  22931071.106 2 122536650.585 3      -713.074          36.000                                                                  
E 5  23332648.031 1 122613910.756 2      -137.886          38.000    23332665.600 1  93950979.516 3      -105.765          37.000  
C19  25540492.123 1 132996066.706 3       763.733          36.000                                                                  
> 2024  1 10 15 46 21.0040000  0 14                     
G 3  23923092.191 2 125716599.805 5     -1059.482          32.000    23923108.406 2  97961209.895 5      -825.634          33.000  
G 4  25684208.193 2               6      1959.628          30.000    25684218.808 8                      1525.708          26.000  
G16  21650435.793 8                      -370.913          28.000                                                                  
G26  21359046.157 1 112242547.007 1     -2355.238          43.000    21359056.619 2  87461773.158 4     -1835.484          33.000  
G28  23328128.276 2 122590138.990 5     -2006.540          32.000    23328134.740 1  95524812.384 3     -1564.059          36.000  
G29  25434460.562 9                     -3293.574          19.000                                                                  
G31  22754368.711 2 119574979.433 5     -1623.618          33.000    22754340.439 9                     -1261.933          23.000  
G32  22991602.398 9                     -3545.552          25.000                                                                  
R 7  20336285.332 2 108861654.610 2     -2759.344          40.000    20336286.986 2  84670254.844 4     -2145.870          34.000  
R 8  21403181.230 1 114613075.920 2      1090.431          42.000                                                                  
R10  21916826.906 4                     -3040.969          30.000                                                                  
R11  22931204.561 2 122537363.699 3      -713.590          38.000                                                                  
E 5  23332674.471 1 122614049.123 3      -138.511          39.000    23332691.883 1  93951085.518 3      -105.715          37.000  
C19  25540345.481 1 132995303.128 3       763.284          37.000                                                                  
> 2024  1 10 15 46 22.0040000  0 15                     
G 3  23923294.006 2 125717659.658 5     -1059.652          32.000    23923310.176 2  97962035.781 5      -826.582          33.000  
G 4  25683835.244 4               7      1958.513          29.000    25683846.909 8                      1526.973          26.000  
G16  21650509.809 8                      -370.000          27.000                                                                  
G26  21359494.242 1 112244902.263 1     -2355.148          42.000    21359504.757 2  87463608.391 4     -1834.651          33.000  
G28  23328510.125 2 122592146.382 5     -2006.888          31.000    23328516.712 1  95526376.568 3     -1564.009          36.000  
G29  25435086.703 9                     -3277.861          18.000                                                                  
G31  22754677.141 2 119576602.931 4     -1623.121          33.000    22754648.903 9                     -1265.058          23.000  
G32  22992278.922 9                     -3544.798          22.000                                                                  
R 7  20336800.900 2 108864413.930 2     -2759.774          38.000    20336802.371 2  84672401.003 4     -2147.088          34.000  
R 8  21402977.782 1 114611985.618 2      1089.906          39.000                                                                  
R10  21917397.336 4               7     -3040.723          30.000                                                                  
R11  22931338.001 2 122538076.931 3      -712.844          34.000                                                                  
E 5  23332701.101 1 122614187.614 2      -138.581          38.000    23332718.437 1  93951191.630 3      -105.824          37.000  
E25  25127558.040 9 132046207.113 4      -821.509          34.000                                                                  
C19  25540198.907 1 132994539.795 3       763.538          34.000                                                                  
> 2024  1 10 15 46 23.0040000  0 15                     
G 3  23923495.910 2 125718719.796 5     -1059.948          32.000    23923512.016 2  97962861.822 4      -825.608          33.000  
G 4  25683462.084 2               6      1960.232          29.000    25683475.100 8                      1527.545          26.000  
G16  21650581.213 8                      -370.552          26.000                                                                  
G26  21359942.527 1 112247257.631 1     -2355.272          43.000    21359952.768 2  87465443.733 4     -1835.193          33.000  
G28  23328891.706 2 122594153.423 5     -2006.424          31.000    23328898.636 1  95527940.529 3     -1564.142          37.000  
G29  25435712.593 9                     -3285.195          15.000                                                                  
G31  22754985.346 2 119578226.124 4     -1623.074          33.000    22754957.263 9                     -1267.159          23.000  
G32  22992954.858 9                     -3543.762          21.000                                                                  
R 7  20337316.518 2 108867173.753 2     -2759.645          39.000    20337317.875 2  84674547.546 5     -2146.837          34.000  
R 8  21402774.444 1 114610895.641 2      1089.933          41.000                                                                  
R10  21917967.565 4               7     -3040.027          29.000                                                                  
R11  22931471.519 2 122538790.244 3      -713.439          34.000                                                                  
E 5  23332727.670 1 122614326.039 2      -138.201          38.000    23332744.807 1  93951297.696 3      -105.331          37.000  
E25  25127714.376 8 132047028.325 4      -821.188          35.000                                                                  
C19  25540052.326 1 132993776.521 3       763.365          37.000                                                                  
> 2024  1 10 15 46 24.0040000  0 15                     
G 3  23923697.772 2 125719780.448 5     -1061.453          32.000    23923714.207 2  97963688.325 4      -826.732          33.000  
G 4  25683088.996 2               6      1959.352          29.000    25683101.615 8                      1527.016          26.000  
G16  21650655.347 9                      -375.002          26.000                                                                  
G26  21360390.853 1 112249613.383 1     -2355.627          43.000    21360401.097 2  87467279.401 4     -1836.092          33.000  
G28  23329273.580 2 122596160.583 5     -2007.459          32.000    23329280.609 1  95529504.430 3     -1563.263          37.000  
G29  25436341.242 9                     -3285.195          13.000                                                                  
G31  22755293.399 2 119579849.341 5     -1623.248          33.000    22755265.604 9                     -1265.774          23.000  
G32  22993630.741 9                     -3545.692          22.000                                                                  
R 7  20337832.351 2 108869934.486 2     -2760.954          39.000    20337833.561 2  84676694.742 4     -2147.601          34.000  
R 8  21402571.170 1 114609806.304 2      1089.293          41.000                                                                  
R10  21918538.022 4               7     -3041.318          29.000                                                                  
R11  22931604.872 2 122539503.914 3      -713.938          35.000                                                                  
E 5  23332753.988 1 122614464.761 2      -138.877          38.000    23332771.251 1  93951404.004 3      -106.339          37.000  
E25  25127869.550 4 132047849.902 4      -821.644          35.000                                                                  
C19  25539905.822 1 132993013.622 2       762.688          38.000                                                                  
> 2024  1 10 15 46 25.0040000  0 15                     
G 3  23923899.751 2 125720841.412 5     -1061.565          32.000    23923916.435 2  97964515.062 5      -826.089          33.000  
G 4  25682715.904 2 134963548.015 5      1960.798          29.000    25682729.278 8                      1526.853          26.000  
G16  21650715.339 9                      -371.735          25.000                                                                  
G26  21360839.263 1 112251969.357 1     -2356.092          43.000    21360849.390 2  87469115.180 5     -1835.319          33.000  
G28  23329655.143 2 122598167.432 4     -2006.527          32.000    23329662.561 1  95531068.279 3     -1563.626          37.000  
G29  25436966.115 9                     -3267.926          15.000                                                                  
G31  22755601.508 2 119581472.336 5     -1622.993          33.000    22755575.455 9                     -1270.372          24.000  
G32  22994307.265 9                     -3540.140          22.000                                                                  
R 7  20338348.348 2 108872695.814 2     -2761.495          39.000    20338349.549 2  84678842.459 4     -2148.494          34.000  
R 8  21402367.920 1 114608717.435 2      1088.516          41.000                                                                  
R10  21919108.332 4               7     -3040.840          28.000                                                                  
R11  22931738.318 2 122540217.666 4      -713.766          34.000                                                                  
E 5  23332780.427 1 122614603.536 2      -138.826          38.000    23332797.770 1  93951510.344 3      -106.625          37.000  
E25  25128025.814 2 132048671.546 4      -821.528          35.000                                                                  
C19  25539759.437 1 132992250.916 3       762.496          38.000                                                                  
> 2024  1 10 15 46 26.0040000  0 14                     
G 3  23924101.818 2 125721902.813 5     -1062.352          32.000    23924118.675 2  97965342.133 5      -826.798          33.000  
G 4  25682342.563 2               7      1959.475          29.000    25682358.304 8               7      1527.655          27.000  
G26  21361287.698 1 112254325.539 1     -2356.250          43.000    21361297.690 2  87470951.156 5     -1835.853          33.000  
G28  23330036.557 2 122600174.125 5     -2006.305          32.000    23330044.385 1  95532631.929 3     -1563.395          37.000  
G29  25437588.291 9                     -3267.926          13.000                                                                  
G31  22755909.256 2 119583095.112 5     -1622.677          33.000    22755885.044 9                     -1256.727          24.000  
G32  22994982.491 9                     -3545.451          23.000                                                                  
R 7  20338864.478 2 108875457.775 2     -2762.194          39.000    20338865.652 2  84680990.603 4     -2148.072          34.000  
R 8  21402164.781 1 114607629.043 1      1087.789          42.000                                                                  
R10  21919678.731 4               7     -3041.295          29.000                                                                  
R11  22931871.772 2 122540931.535 4      -713.592          33.000                                                                  
E 5  23332806.785 1 122614742.379 3      -138.511          38.000    23332824.293 1  93951616.726 3      -106.301          37.000  
E25  25128182.161 2 132049493.372 4      -822.062          35.000                                                                  
C19  25539613.062 1 132991488.333 3       763.142          38.000                                                                  
> 2024  1 10 15 46 27.0040000  0 14                     
G 3  23924303.746 2 125722964.329 5     -1061.424          32.000    23924320.485 2  97966169.300 4      -827.410          33.000  
G 4  25681969.401 2               6      1960.712          29.000    25681985.790 8                      1527.876          27.000  
G26  21361736.135 1 112256681.709 1     -2356.233          43.000    21361745.995 2  87472787.156 4     -1836.215          33.000  
G28  23330418.164 2 122602180.449 5     -2005.968          30.000    23330426.239 1  95534195.317 2     -1563.395          37.000  
G29  25438213.177 9                     -3281.619          14.000                                                                  
G31  22756217.016 2 119584717.575 5     -1622.231          32.000    22756193.746 9                     -1262.660          24.000  
G32  22995659.376 9                     -3545.850          23.000                                                                  
R 7  20339380.646 2 108878220.171 2     -2762.628          40.000    20339381.867 2  84683139.180 4     -2148.944          34.000  
R 8  21401961.697 1 114606540.908 2      1087.980          42.000                                                                  
R10  21920248.815 4               6     -3039.854          29.000                                                                  
R11  22932005.146 2 122541645.395 5      -713.565          33.000                                                                  
E 5  23332832.923 1 122614881.140 3      -138.964          38.000    23332850.732 1  93951723.035 3      -106.416          37.000  
E25  25128338.747 1 132050315.072 4      -821.291          35.000                                                                  
C19  25539466.750 1 132990725.762 2       762.482          38.000                                                                  
> 2024  1 10 15 46 28.0040000  0 14                     
G 3  23924505.951 2 125724026.133 5     -1061.619          32.000    23924522.469 2  97966996.672 5      -827.128          33.000  
G 4  25681596.094 2 134957666.818 5      1960.679          29.000    25681613.576 8                      1527.856          27.000  
G26  21362184.657 1 112259038.017 1     -2356.405          43.000    21362194.333 2  87474623.213 5     -1835.713          33.000  
G28  23330799.697 2 122604186.520 5     -2006.169          30.000    23330808.070 1  95535758.458 2     -1563.170          37.000  
G29  25438835.512 9                     -3278.539          17.000                                                                  
G31  22756524.800 4               6     -1622.159          31.000    22756503.606 9                     -1264.839          25.000  
G32  22996334.910 9                     -3549.511          24.000                                                                  
R 7  20339896.904 1 108880983.146 2     -2762.906          40.000    20339897.853 2  84685288.145 4     -2149.125          34.000  
R 8  21401758.675 1 114605453.175 2      1087.452          41.000                                                                  
R10  21920819.159 4               6     -3040.115          28.000                                                                  
R11  22932138.596 2               6      -714.191          32.000                                                                  
E 5  23332859.300 1 122615019.839 3      -138.583          38.000    23332877.144 1  93951829.321 2      -106.225          37.000  
E25  25128495.607 1 132051136.849 4      -821.457          34.000                                                                  
C19  25539320.530 1 132989963.249 2       762.745          38.000                                                                  
> 2024  1 10 15 46 29.0040000  0 14                     
G 3  23924707.855 2 125725088.085 5     -1061.912          33.000    23924724.519 2  97967824.193 4      -827.920          32.000  
G 4  25681222.903 2               6      1960.887          30.000    25681240.423 8                      1528.801          27.000  
G26  21362633.131 1 112261394.310 1     -2356.716          45.000    21362642.658 2  87476459.294 5     -1836.755          33.000  
G28  23331181.154 4               6     -2005.233          32.000    23331189.833 1  95537321.325 2     -1562.692          38.000  
G29  25439460.730 9                     -3288.634          19.000                                                                  
G31  22756832.651 4 119587961.443 5     -1621.715          32.000    22756812.706 8                     -1262.891          25.000  
G32  22997011.758 9                     -3547.873          26.000                                                                  
R 7  20340413.267 1 108883746.600 2     -2763.628          41.000    20340414.143 2  84687437.464 4     -2149.152          34.000  
R 8  21401555.700 1 114604365.713 2      1087.056          42.000                                                                  
R10  21921389.452 4               6     -3040.466          28.000                                                                  
R11  22932271.981 2 122543073.176 5      -714.612          33.000                                                                  
E 5  23332885.532 1 122615158.429 3      -138.647          38.000    23332903.481 1  93951935.519 3      -106.438          37.000  
E25  25128651.976 2 132051958.535 4      -821.718          34.000                                                                  
C19  25539174.189 1 132989200.754 2       762.156          39.000                                                                  
> 2024  1 10 15 46 30.0040000  0 14                     
G 3  23924909.887 2               6     -1062.626          31.000    23924926.480 2  97968651.968 5      -828.326          33.000  
G 4  25680849.532 4               7      1962.085          30.000    25680867.672 8                      1528.583          28.000  
G26  21363081.735 1 112263750.828 1     -2356.535          43.000    21363091.085 2  87478295.568 5     -1837.114          33.000  
G28  23331562.489 2 122608197.660 5     -2005.547          31.000    23331571.695 1  95538884.028 2     -1562.115          37.000  
G29  25440086.218 9                     -3274.270          19.000                                                                  
G31  22757140.557 2 119589582.999 4     -1621.526          32.000    22757122.279 8                     -1264.710          24.000  
G32  22997686.688 9                     -3547.169          25.000                                                                  
R 7  20340929.685 1 108886510.693 2     -2764.464          39.000    20340930.523 2  84689587.342 4     -2150.112          34.000  
R 8  21401352.698 1 114603278.695 2      1086.817          40.000                                                                  
R10  21921959.510 4               7     -3039.862          27.000                                                                  
R11  22932405.389 2               6      -713.963          31.000                                                                  
E 5  23332911.837 1 122615297.104 3      -138.591          36.000    23332929.776 1  93952041.778 2      -106.449          37.000  
E25  25128808.833 1 132052780.322 4      -821.621          34.000                                                                  
C19  25539027.925 1 132988438.458 2       761.948          38.000                                                                  
> 2024  1 10 15 46 31.0040000  0 14                     
G 3  23925112.010 2 125727213.154 5     -1062.764          31.000    23925128.848 2  97969480.065 5      -828.280          33.000  
G 4  25680475.985 4                      1961.188          30.000    25680495.321 8                      1528.898          28.000  
G26  21363530.303 1 112266107.617 1     -2357.177          44.000    21363539.507 1  87480131.968 4     -1836.448          33.000  
G28  23331943.915 4               6     -2005.511          31.000    23331953.412 1  95540446.673 3     -1562.722          38.000  
G29  25440710.645 9                     -3278.493          18.000                                                                  
G31  22757448.493 2 119591204.462 5     -1621.520          33.000    22757431.090 8                     -1263.576          25.000  
G32  22998362.657 9                     -3548.282          25.000                                                                  
R 7  20341446.278 1 108889275.507 2     -2765.167          41.000    20341447.134 2  84691737.737 4     -2151.012          34.000  
R 8  21401149.761 1 114602192.195 2      1086.044          41.000                                                                  
R10  21922529.664 4               7     -3039.226          28.000                                                                  
R11  22932538.799 2 122544501.293 5      -714.753          32.000                                                                  
E 5  23332937.892 1 122615435.905 3      -139.086          37.000    23332956.215 1  93952148.131 2      -106.524          37.000  
E25  25128965.560 1 132053602.322 4      -822.065          34.000                                                                  
C19  25538881.731 1 132987676.354 2       761.940          39.000                                                                  
> 2024  1 10 15 46 32.0040000  0 14                     
G 3  23925314.261 4               6     -1062.621          31.000    23925331.257 2  97970308.454 4      -828.497          33.000  
G 4  25680102.320 4                      1961.810          29.000    25680122.330 8               7      1528.563          28.000  
G26  21363978.878 1 112268464.590 1     -2357.317          45.000    21363987.958 2  87481968.569 4     -1836.490          33.000  
G28  23332325.298 2               6     -2004.821          32.000    23332335.017 1  95542009.162 2     -1562.392          38.000  
G29  25441335.813 9                     -3268.903          16.000                                                                  
G31  22757756.751 2 119592825.691 5     -1621.013          33.000    22757741.457 8                     -1262.966          25.000  
G32  22999037.681 8                     -3548.711          25.000                                                                  
R 7  20341962.886 1 108892040.956 2     -2765.850          42.000    20341963.815 2  84693888.634 4     -2151.004          34.000  
R 8  21400947.011 1 114601106.141 2      1085.792          42.000                                                                  
R10  21923099.830 4               7     -3039.581          31.000                                                                  
R11  22932672.121 4 122545215.577 5      -714.687          32.000                                                                  
E 5  23332964.078 1 122615574.771 2      -139.085          38.000    23332982.573 1  93952254.546 3      -106.788          37.000  
E25  25129122.527 2 132054424.430 4      -822.457          34.000                                                                  
C19  25538735.648 1 132986914.397 2       762.244          39.000                                                                  
> 2024  1 10 15 46 33.0040000  0 14                     
G 3  23925516.336 4               6     -1063.129          31.000    23925533.696 2  97971137.083 5      -828.865          33.000  
G 4  25679728.643 4               7      1961.965          30.000    25679750.561 8               7      1529.137          28.000  
G26  21364427.489 1 112270821.723 1     -2357.228          45.000    21364436.507 2  87483805.299 5     -1836.347          32.000  
G28  23332706.466 2               6     -2005.038          32.000    23332716.579 1  95543571.438 3     -1562.080          38.000  
G29  25441958.690 9                     -3282.644          18.000                                                                  
G31  22758064.775 2 119594446.689 4     -1620.632          34.000    22758049.866 8                     -1261.563          25.000  
G32  22999716.345 9                     -3548.940          26.000                                                                  
R 7  20342479.626 1 108894807.010 2     -2766.416          42.000    20342480.552 2  84696040.022 4     -2151.787          34.000  
R 8  21400744.353 1 114600020.502 2      1085.181          41.000                                                                  
R10  21923669.845 4               7     -3039.161          30.000                                                                  
R11  22932805.606 4               6      -715.105          32.000                                                                  
E 5  23332990.584 1 122615713.655 3      -139.109          37.000    23333008.974 1  93952360.946 3      -106.352          37.000  
E25  25129279.540 1 132055246.587 4      -822.281          34.000                                                                  
C19  25538589.520 1 132986152.628 2       761.550          39.000                                                                  
> 2024  1 10 15 46 34.0040000  0 13                     
G 3  23925718.512 2 125730403.359 5     -1064.273          32.000    23925736.060 2  97971965.938 5      -828.697          32.000  
G 4  25679355.039 4               7      1962.509          30.000    25679378.006 8               6      1529.420          28.000  
G26  21364876.192 1 112273179.040 1     -2357.549          45.000    21364885.056 2  87485642.170 5     -1836.937          32.000  
G28  23333087.961 2 122616217.862 4     -2004.885          32.000    23333098.090 1  95545133.572 2     -1562.010          38.000  
G31  22758372.533 2 119596067.455 3     -1620.702          35.000    22758358.115 8                     -1261.116          25.000  
G32  23000393.281 8                     -3548.768          26.000                                                                  
R 7  20342996.481 1 108897573.665 2     -2767.363          41.000    20342997.488 2  84698191.829 4     -2151.690          34.000  
R 8  21400541.734 1 114598935.275 2      1084.933          40.000                                                                  
R10  21924239.784 4               7     -3039.209          30.000                                                                  
R11  22932939.062 4               6      -715.396          32.000                                                                  
E 5  23333016.868 1 122615852.576 3      -138.758          37.000    23333035.484 1  93952467.407 3      -106.327          37.000  
E25  25129435.622 1 132056068.855 4      -822.464          34.000                                                                  
C19  25538443.330 1 132985390.947 2       761.669          39.000                                                                  
> 2024  1 10 15 46 35.0040000  0 13                     
G 3  23925920.719 2 125731467.395 5     -1064.944          32.000    23925938.235 2  97972795.007 5      -828.861          33.000  
G 4  25678981.061 4               7      1962.993          29.000    25679003.393 8               7      1529.966          28.000  
G26  21365324.932 1 112275536.454 1     -2357.484          45.000    21365333.520 2  87487479.124 4     -1837.137          33.000  
G28  23333469.309 2               6     -2003.786          32.000    23333479.596 1  95546695.495 2     -1561.940          37.000  
G31  22758680.762 1 119597687.959 3     -1620.430          36.000    22758667.702 8                     -1261.405          25.000  
G32  23001072.586 8                     -3549.163          26.000                                                                  
R 7  20343513.514 1 108900340.830 2     -2767.298          41.000    20343514.439 2  84700344.111 3     -2152.803          34.000  
R 8  21400339.229 1 114597850.439 2      1084.693          40.000                                                                  
R10  21924809.837 4               7     -3039.245          30.000                                                                  
R11  22933072.525 4               6      -714.728          32.000                                                                  
E 5  23333043.362 1 122615991.517 3      -139.334          37.000    23333061.669 1  93952573.840 3      -106.213          37.000  
E25  25129592.019 1 132056891.137 4      -822.144          33.000                                                                  
C19  25538297.093 1 132984629.399 2       761.310          39.000                                                                  
> 2024  1 10 15 46 36.0040000  0 14                     
G 3  23926123.019 2               6     -1064.600          31.000    23926140.602 2  97973624.346 5      -830.048          33.000  
G 4  25678607.283 2 134941969.749 5      1963.117          29.000    25678629.784 8                      1529.463          28.000  
G26  21365773.686 1 112277894.034 1     -2357.752          45.000    21365782.096 2  87489316.173 5     -1836.548          33.000  
G28  23333850.357 4               6     -2004.281          32.000    23333861.082 1  95548257.221 3     -1561.876          37.000  
G29  25443833.845 9                     -3295.022          20.000                                                                  
G31  22758988.878 1 119599308.228 3     -1620.504          37.000    22758976.144 8                     -1261.349          25.000  
G32  23001748.614 8                     -3549.715          26.000                                                                  
R 7  20344030.694 1 108903108.616 2     -2768.161          41.000    20344031.445 2  84702496.787 5     -2152.354          33.000  
R 8  21400136.868 1 114596766.012 2      1084.055          39.000    21400135.688 9                       843.800          26.000  
R10  21925379.848 4               6     -3038.354          32.000                                                                  
R11  22933205.815 4               7      -714.605          31.000                                                                  
E 5  23333069.967 1 122616130.447 3      -139.069          37.000    23333088.046 1  93952680.323 3      -106.479          37.000  
E25  25129748.350 2 132057713.494 4      -821.801          33.000                                                                  
C19  25538150.972 1 132983867.979 2       761.165          39.000                                                                  
