     3.03           OBSERVATION DATA    M: Mixed            RINEX VERSION / TYPE
CONVBIN 1.0.1 Emlid                     20230915 185026 UTC PGM / RUN BY / DATE 
log: MACROCOSM-5_raw_202309151848.23                        COMMENT             
format: u-blox                                              COMMENT             
                                                            MARKER NAME         
                                                            MARKER NUMBER       
                                                            MARKER TYPE         
                                                            OBSERVER / AGENCY   
                    EMLID REACH M2                          REC # / TYPE / VERS 
                                                            ANT # / TYPE        
  2481060.7360 -5525688.6537  1992268.0772                  APPROX POSITION XYZ 
        0.0000        0.0000        0.0000                  ANTENNA: DELTA H/E/N
G    8 C1C L1C D1C S1C C2X L2X D2X S2X                      SYS / # / OBS TYPES 
R    8 C1C L1C D1C S1C C2C L2C D2C S2C                      SYS / # / OBS TYPES 
E    8 C1X L1X D1X S1X C7X L7X D7X S7X                      SYS / # / OBS TYPES 
J    8 C1C L1C D1C S1C C2X L2X D2X S2X                      SYS / # / OBS TYPES 
C    8 C2I L2I D2I S2I C7I L7I D7I S7I                      SYS / # / OBS TYPES 
  2023     9    15    18    49   20.1970000     GPS         TIME OF FIRST OBS   
  2023     9    15    18    50   44.1970000     GPS         TIME OF LAST OBS    
G                                                           SYS / PHASE SHIFT   
R                                                           SYS / PHASE SHIFT   
E                                                           SYS / PHASE SHIFT   
J                                                           SYS / PHASE SHIFT   
C                                                           SYS / PHASE SHIFT   
  0                                                         GLONASS SLOT / FRQ #
 C1C    0.000 C1P    0.000 C2C    0.000 C2P    0.000        GLONASS COD/PHS/BIS 
                                                            END OF HEADER       
> 2023  9 15 18 49 20.1970000  0 16                     
G10  21592683.649 1 113470317.16211      1749.698          47.000    21592692.987 1  88418467.59012      1363.373          39.000  
G18  20484601.331 1 107647306.039 1     -3314.447          45.000    20484608.911 1  83881048.48112     -2582.797          41.000  
G23  19671320.195 1 103373484.68311       118.572          44.000    19671326.376 1  80550791.89112        92.498          42.000  
G24  21292598.696 1 111893360.69511     -4150.411          43.000    21292608.643 1  87189672.321 2     -3234.058          40.000  
G25  21538151.894 1 113183751.291 1      1649.363          45.000    21538163.516 1  88195178.686 2      1285.173          40.000  
G32  22844255.120 1 120047370.331 2       -34.259          40.000    22844264.384 9               6       -25.964          31.000  
R 1  22003717.511 1 117622480.276 2       595.445          40.000    22003731.148 4               7       462.710          31.000  
R 8  20611341.234 1 110372796.401 1      -540.006          46.000    20611349.423 2  85845541.785 3      -420.176          35.000  
R10  19908420.772 2 106123084.22212     -2898.041          39.000                                                                  
R11  19116411.622 1 102152306.736 1      1212.491          49.000    19116416.038 1  79451813.131 1       942.986          43.000  
R23  20718160.641 1 110828188.615 1     -3428.290          43.000                                                                  
E 9  24039382.298 1 126327806.528 2     -1533.483          40.000                                                                  
E24  24792755.800 1 130286810.683 1      1192.436          45.000                                                                  
E36  23376394.133 1 122843779.771 1     -1766.377          47.000                                                                  
C14  22634739.427 1 117865027.350 1       426.286          45.000    22634747.589 1  91140748.12412       330.024          39.000  
C24  21163060.963 1 110201611.479 1       724.627          48.000                                                                  
> 2023  9 15 18 49 20.3970000  0 16                     
G10  21592617.019 1 113469967.158 1      1749.894          47.000    21592626.384 1  88418194.854 2      1363.733          39.000  
G18  20484727.481 1 107647968.912 1     -3314.312          45.000    20484735.036 1  83881564.998 2     -2582.677          41.000  
G23  19671315.664 1 103373460.939 1       118.545          44.000    19671321.854 1  80550773.395 2        92.498          42.000  
G24  21292756.619 1 111894190.743 1     -4150.167          43.000    21292766.570 1  87190319.119 2     -3233.988          40.000  
G25  21538089.059 1 113183421.378 1      1649.424          45.000    21538100.723 1  88194921.603 2      1285.449          40.000  
G32  22844256.424 1 120047377.102 2       -33.929          40.000    22844264.582 9               7       -26.361          31.000  
R 1  22003695.228 1 117622361.188 2       595.357          39.000    22003708.780 4               7       462.790          31.000  
R 8  20611361.439 1 110372904.331 1      -539.518          46.000    20611369.513 2  85845625.708 3      -419.279          35.000  
R10  19908529.528 2 106123663.793 2     -2898.004          39.000                                                                  
R11  19116366.256 1 102152064.204 1      1212.606          49.000    19116370.594 1  79451624.490 1       943.080          43.000  
R23  20718288.850 1 110828874.248 1     -3428.079          43.000                                                                  
E 9  24039440.655 1 126328113.140 2     -1533.097          40.000                                                                  
E24  24792710.302 1 130286572.137 1      1192.646          45.000                                                                  
E36  23376461.344 1 122844132.993 1     -1766.069          47.000                                                                  
C14  22634723.105 1 117864942.022 1       426.623          45.000    22634731.163 1  91140682.155 2       329.987          39.000  
C24  21163033.050 1 110201466.503 1       724.751          48.000                                                                  
> 2023  9 15 18 49 20.5970000  0 16                     
G10  21592550.384 1 113469617.149 1      1750.042          47.000    21592559.780 1  88417922.133 2      1363.622          39.000  
G18  20484853.632 1 107648631.799 1     -3314.427          45.000    20484861.146 1  83882081.539 2     -2582.920          42.000  
G23  19671311.172 1 103373437.199 1       118.632          44.000    19671317.316 1  80550754.913 2        92.383          42.000  
G24  21292914.586 1 111895020.796 1     -4150.358          43.000    21292924.550 1  87190965.912 2     -3234.003          40.000  
G25  21538026.264 1 113183091.451 1      1649.404          45.000    21538037.940 1  88194664.529 2      1285.378          40.000  
G32  22844257.647 1 120047383.859 2       -33.716          40.000    22844266.962 9               6       -26.526          31.000  
R 1  22003672.922 1 117622242.084 2       595.303          39.000    22003686.535 4               7       463.071          31.000  
R 8  20611381.652 1 110373012.269 1      -539.767          46.000    20611389.656 2  85845709.673 3      -419.667          35.000  
R10  19908638.260 2 106124243.397 2     -2898.291          39.000                                                                  
R11  19116320.883 1 102151821.708 1      1212.278          49.000    19116325.218 1  79451435.882 1       943.023          43.000  
R23  20718417.037 1 110829559.895 1     -3428.479          43.000                                                                  
E 9  24039499.094 1 126328419.753 2     -1533.127          40.000                                                                  
E24  24792664.976 1 130286333.588 1      1192.696          45.000                                                                  
E36  23376528.641 1 122844486.251 1     -1766.398          47.000                                                                  
C14  22634706.732 1 117864856.699 1       426.660          45.000    22634714.785 1  91140616.174 2       330.204          39.000  
C24  21163005.127 1 110201321.543 1       724.837          48.000                                                                  
> 2023  9 15 18 49 20.7970000  0 16                     
G10  21592483.793 1 113469267.175 1      1749.966          47.000    21592493.198 1  88417649.439 2      1363.259          39.000  
G18  20484979.764 1 107649294.724 1     -3314.598          45.000    20484987.328 1  83882598.101 2     -2582.834          42.000  
G23  19671306.656 1 103373413.513 1       118.568          44.000    19671312.794 1  80550736.449 1        92.180          42.000  
G24  21293072.559 1 111895850.892 1     -4150.482          43.000    21293082.505 1  87191612.741 2     -3234.352          40.000  
G25  21537963.458 1 113182761.575 1      1649.302          45.000    21537975.150 1  88194407.477 2      1285.206          40.000  
G32  22844258.943 1 120047390.668 2       -34.088          40.000    22844269.877 9               6       -26.593          31.000  
R 1  22003650.605 1 117622122.992 2       595.565          39.000    22003664.193 4               6       463.718          31.000  
R 8  20611401.788 1 110373120.232 1      -539.832          45.000    20611409.817 2  85845793.641 3      -420.004          35.000  
R10  19908746.965 2 106124823.058 2     -2898.395          39.000                                                                  
R11  19116275.534 1 102151579.246 1      1212.241          49.000    19116279.820 1  79451247.317 1       942.554          43.000  
R23  20718545.240 1 110830245.574 1     -3428.475          43.000                                                                  
E 9  24039557.510 1 126328726.375 2     -1533.042          40.000                                                                  
E24  24792619.571 1 130286095.082 1      1192.511          45.000                                                                  
E36  23376595.753 1 122844839.541 1     -1766.636          47.000                                                                  
C14  22634690.315 1 117864771.401 1       426.545          45.000    22634698.425 1  91140550.231 2       329.780          39.000  
C24  21162977.341 1 110201176.638 1       724.529          48.000                                                                  
> 2023  9 15 18 49 20.9970000  0 16                     
G10  21592417.248 1 113468917.215 1      1749.581          47.000    21592426.615 1  88417376.740 2      1363.041          39.000  
G18  20485105.926 1 107649957.680 1     -3314.896          45.000    20485113.495 1  83883114.687 2     -2583.103          42.000  
G23  19671302.198 1 103373389.853 1       118.107          44.000    19671308.321 1  80550718.010 1        92.064          42.000  
G24  21293230.509 1 111896680.998 1     -4150.756          43.000    21293240.490 1  87192259.580 2     -3234.587          40.000  
G25  21537900.727 1 113182431.700 1      1649.106          45.000    21537912.379 1  88194150.443 2      1284.926          40.000  
G32  22844260.234 1 120047397.476 2       -34.241          40.000    22844270.775 9               6       -27.148          31.000  
R 1  22003628.308 1 117622003.917 2       595.426          39.000    22003641.837 4               6       463.286          31.000  
R 8  20611421.976 1 110373228.196 1      -540.140          45.000    20611429.964 2  85845877.608 3      -419.965          35.000  
R10  19908855.695 2 106125402.766 2     -2898.846          39.000                                                                  
R11  19116230.146 1 102151336.834 1      1211.719          49.000    19116234.448 1  79451058.767 1       942.516          43.000  
R23  20718673.404 1 110830931.290 1     -3428.822          44.000                                                                  
E 9  24039615.872 1 126329033.025 2     -1533.382          40.000                                                                  
E24  24792574.207 1 130285856.576 1      1192.346          45.000                                                                  
E36  23376662.858 1 122845192.853 1     -1766.794          47.000                                                                  
C14  22634673.932 1 117864686.105 1       426.273          45.000    22634682.042 1  91140484.256 2       329.586          39.000  
C24  21162949.512 1 110201031.753 1       724.067          48.000                                                                  
> 2023  9 15 18 49 21.1970000  0 16                     
G10  21592350.666 1 113468567.265 1      1749.622          47.000    21592360.021 1  88417104.032 2      1363.416          39.000  
G18  20485232.117 1 107650620.663 1     -3314.846          45.000    20485239.630 1  83883631.297 1     -2582.888          42.000  
G23  19671297.679 1 103373366.215 1       118.145          44.000    19671303.763 1  80550699.596 1        92.077          42.000  
G24  21293388.438 1 111897511.129 1     -4150.701          43.000    21293398.501 1  87192906.430 2     -3234.371          41.000  
G25  21537837.978 1 113182101.842 1      1649.260          45.000    21537849.599 1  88193893.411 2      1285.061          40.000  
G32  22844261.517 1 120047404.279 2       -33.893          40.000    22844271.545 9               6       -26.996          31.000  
R 1  22003606.026 1 117621884.834 2       595.309          39.000    22003619.445 4               6       462.596          31.000  
R 8  20611442.135 1 110373336.158 1      -539.934          45.000    20611450.163 2  85845961.603 3      -419.539          35.000  
R10  19908964.447 2 106125982.491 2     -2898.792          38.000                                                                  
R11  19116184.759 1 102151094.445 1      1211.868          49.000    19116189.120 1  79450870.248 1       942.481          43.000  
R23  20718801.591 1 110831617.031 1     -3428.823          44.000                                                                  
E 9  24039674.217 1 126329339.664 2     -1533.165          40.000                                                                  
E24  24792528.722 1 130285618.090 1      1192.362          45.000                                                                  
E36  23376730.050 1 122845546.192 1     -1766.702          47.000                                                                  
C14  22634657.525 1 117864600.814 1       426.422          45.000    22634665.637 1  91140418.308 2       329.846          39.000  
C24  21162921.722 1 110200886.886 1       724.330          48.000                                                                  
> 2023  9 15 18 49 21.3970000  0 16                     
G10  21592284.065 1 113468217.307 1      1749.639          47.000    21592293.410 1  88416831.351 2      1363.400          39.000  
G18  20485358.280 1 107651283.679 1     -3315.208          45.000    20485365.827 1  83884147.926 1     -2583.354          42.000  
G23  19671293.263 1 103373342.588 1       117.985          44.000    19671299.227 1  80550681.177 2        92.047          42.000  
G24  21293546.393 1 111898341.264 1     -4150.825          43.000    21293556.511 1  87193553.295 2     -3234.622          40.000  
G25  21537775.183 1 113181771.988 1      1649.006          45.000    21537786.801 1  88193636.362 2      1285.160          40.000  
G32  22844262.786 1 120047411.101 2       -34.314          41.000    22844273.199 9               6       -26.984          31.000  
R 1  22003583.698 1 117621765.751 2       594.993          39.000    22003597.135 4               6       462.405          31.000  
R 8  20611462.304 1 110373444.135 1      -540.061          45.000    20611470.349 2  85846045.575 3      -419.963          35.000  
R10  19909073.195 2 106126562.282 2     -2899.475          38.000                                                                  
R11  19116139.417 1 102150852.099 1      1211.616          49.000    19116143.867 1  79450681.753 1       942.378          43.000  
R23  20718929.756 1 110832302.787 1     -3429.134          44.000                                                                  
E 9  24039732.569 1 126329646.302 2     -1533.248          40.000                                                                  
E24  24792483.298 1 130285379.598 1      1192.418          45.000                                                                  
E36  23376797.214 1 122845899.552 1     -1766.941          47.000                                                                  
C14  22634641.215 1 117864515.516 1       426.421          45.000    22634649.255 1  91140352.364 2       329.519          39.000  
C24  21162893.837 1 110200742.038 1       724.093          48.000                                                                  
> 2023  9 15 18 49 21.5970000  0 16                     
G10  21592217.479 1 113467867.391 1      1749.578          46.000    21592226.807 1  88416558.668 2      1363.630          39.000  
G18  20485484.469 1 107651946.716 1     -3315.314          45.000    20485492.015 1  83884664.573 1     -2583.354          42.000  
G23  19671288.768 1 103373319.005 1       117.975          44.000    19671294.707 1  80550662.805 2        91.919          42.000  
G24  21293704.393 1 111899171.420 1     -4150.860          43.000    21293714.469 1  87194200.149 2     -3234.152          40.000  
G25  21537712.412 1 113181442.158 1      1649.112          45.000    21537724.042 1  88193379.355 2      1285.406          40.000  
G32  22844264.092 1 120047417.935 2       -34.332          41.000    22844275.923 9               6       -26.892          31.000  
R 1  22003561.408 1 117621646.667 2       595.494          39.000    22003574.735 4               6       462.295          31.000  
R 8  20611482.476 1 110373552.128 1      -540.028          45.000    20611490.533 2  85846129.571 3      -420.260          35.000  
R10  19909181.936 2 106127142.082 2     -2899.304          38.000                                                                  
R11  19116094.077 1 102150609.802 1      1211.360          49.000    19116098.517 1  79450493.297 1       942.330          43.000  
R23  20719057.910 1 110832988.579 1     -3428.974          43.000                                                                  
E 9  24039790.888 1 126329952.966 2     -1533.162          40.000                                                                  
E24  24792437.869 1 130285141.149 1      1192.159          45.000                                                                  
E36  23376864.427 1 122846252.960 1     -1767.112          47.000                                                                  
C14  22634624.899 1 117864430.245 1       426.491          45.000    22634632.883 1  91140286.407 2       329.902          39.000  
C24  21162866.025 1 110200597.234 1       724.042          48.000                                                                  
> 2023  9 15 18 49 21.7970000  0 16                     
G10  21592150.897 1 113467517.449 1      1749.750          46.000    21592160.239 1  88416286.018 2      1363.509          39.000  
G18  20485610.629 1 107652609.749 1     -3314.948          45.000    20485618.233 1  83885181.231 1     -2583.199          42.000  
G23  19671284.301 1 103373295.421 1       118.050          44.000    19671290.205 1  80550644.421 2        92.184          42.000  
G24  21293862.366 1 111900001.587 1     -4150.586          43.000    21293872.484 1  87194847.055 2     -3234.424          40.000  
G25  21537649.619 1 113181112.322 1      1649.167          45.000    21537661.303 1  88193122.343 2      1285.355          40.000  
G32  22844265.367 1 120047424.759 2       -33.966          41.000    22844278.626 9               6       -27.069          31.000  
R 1  22003539.095 1 117621527.577 2       595.198          40.000    22003552.482 4               6       462.330          31.000  
R 8  20611502.626 1 110373660.099 1      -539.764          45.000    20611510.610 2  85846213.537 3      -419.623          35.000  
R10  19909290.701 2 106127721.912 2     -2899.054          38.000                                                                  
R11  19116048.662 1 102150367.507 1      1211.493          49.000    19116053.144 1  79450304.850 1       942.394          43.000  
R23  20719186.140 1 110833674.385 1     -3429.041          43.000                                                                  
E 9  24039849.189 1 126330259.596 2     -1532.981          40.000                                                                  
E24  24792392.506 1 130284902.674 1      1192.431          45.000                                                                  
E36  23376931.805 1 122846606.355 1     -1766.888          47.000                                                                  
C14  22634608.521 1 117864344.947 1       426.661          45.000    22634616.498 1  91140220.469 2       329.971          39.000  
C24  21162838.149 1 110200452.428 1       724.055          48.000                                                                  
> 2023  9 15 18 49 21.9970000  0 16                     
G10  21592084.335 1 113467167.523 1      1749.526          46.000    21592093.659 1  88416013.337 2      1363.150          39.000  
G18  20485736.816 1 107653272.822 1     -3315.426          45.000    20485744.430 1  83885697.902 1     -2583.445          42.000  
G23  19671279.849 1 103373271.856 1       117.612          44.000    19671285.708 1  80550626.054 2        91.833          42.000  
G24  21294020.389 1 111900831.758 1     -4150.809          43.000    21294030.445 1  87195493.949 2     -3234.839          40.000  
G25  21537586.830 1 113180782.505 1      1648.839          45.000    21537598.535 1  88192865.346 2      1284.982          40.000  
G32  22844266.659 1 120047431.581 2       -34.247          41.000    22844280.533 9               6       -26.801          31.000  
R 1  22003516.792 1 117621408.467 2       595.165          40.000    22003530.179 4               6       462.758          31.000  
R 8  20611522.808 1 110373768.076 1      -540.037          45.000    20611530.826 2  85846297.535 3      -420.223          35.000  
R10  19909399.494 2 106128301.812 2     -2899.756          38.000                                                                  
R11  19116003.344 1 102150125.259 1      1211.123          49.000    19116007.802 1  79450116.430 1       941.886          43.000  
R23  20719314.323 1 110834360.202 1     -3429.192          43.000                                                                  
E 9  24039907.600 1 126330566.228 2     -1533.130          40.000                                                                  
E24  24792347.075 1 130284664.213 1      1192.244          45.000                                                                  
E36  23376999.067 1 122846959.782 1     -1767.177          47.000                                                                  
C14  22634592.182 1 117864259.662 1       426.354          45.000    22634600.127 1  91140154.519 2       329.680          39.000  
C24  21162810.383 1 110200307.644 1       723.757          48.000                                                                  
> 2023  9 15 18 49 22.1970000  0 16                     
G10  21592017.725 1 113466817.576 1      1749.603          46.000    21592027.033 1  88415740.647 2      1363.572          39.000  
G18  20485862.961 1 107653935.895 1     -3315.569          45.000    20485870.621 1  83886214.579 2     -2583.387          42.000  
G23  19671275.390 1 103373248.293 1       117.656          44.000    19671281.249 1  80550607.695 2        91.512          42.000  
G24  21294178.363 1 111901661.934 1     -4151.006          43.000    21294188.438 1  87196140.837 2     -3234.850          40.000  
G25  21537524.020 1 113180452.674 1      1648.846          45.000    21537535.828 1  88192608.335 2      1285.141          40.000  
G32  22844267.977 1 120047438.390 2       -34.149          41.000    22844280.494 9  93543496.789 5       -26.190          31.000  
R 1  22003494.474 1 117621289.332 2       595.501          39.000    22003507.908 4               6       463.748          30.000  
R 8  20611542.988 1 110373876.036 1      -540.011          45.000    20611550.978 2  85846381.519 4      -420.563          35.000  
R10  19909508.283 2 106128881.701 3     -2900.073          38.000                                                                  
R11  19115958.035 1 102149883.015 1      1211.041          49.000    19115962.463 1  79449928.007 1       942.109          43.000  
R23  20719442.555 1 110835046.042 1     -3429.460          43.000                                                                  
E 9  24039965.890 1 126330872.875 2     -1533.242          40.000                                                                  
E24  24792301.846 1 130284425.740 1      1192.205          45.000                                                                  
E36  23377066.313 1 122847313.215 1     -1767.384          47.000                                                                  
C14  22634575.780 1 117864174.357 1       426.488          45.000    22634583.763 1  91140088.563 2       329.470          39.000  
C24  21162782.605 1 110200162.861 1       723.659          48.000                                                                  
> 2023  9 15 18 49 22.3970000  0 16                     
G10  21591951.175 1 113466467.646 1      1749.668          46.000    21591960.469 1  88415467.981 2      1363.351          39.000  
G18  20485989.168 1 107654598.986 1     -3315.425          45.000    20485996.770 1  83886731.283 2     -2583.469          42.000  
G23  19671270.952 1 103373224.743 1       117.922          44.000    19671276.793 1  80550589.338 1        91.988          42.000  
G24  21294336.365 1 111902492.131 1     -4151.127          43.000    21294346.386 1  87196787.715 2     -3234.353          40.000  
G25  21537461.247 1 113180122.856 1      1649.078          45.000    21537473.083 1  88192351.351 2      1284.983          40.000  
G32  22844269.272 1 120047445.228 2       -34.161          41.000    22844281.992 9  93543502.129 5       -27.045          31.000  
R 1  22003472.206 1 117621170.220 2       595.591          40.000    22003485.586 4               6       463.667          30.000  
R 8  20611563.170 1 110373984.006 1      -539.746          45.000    20611571.096 2  85846465.456 4      -419.841          35.000  
R10  19909617.051 2 106129461.612 3     -2899.371          38.000                                                                  
R11  19115912.738 1 102149640.812 1      1210.990          49.000    19115917.100 1  79449739.627 1       941.710          43.000  
R23  20719570.764 1 110835731.898 1     -3429.247          43.000                                                                  
E 9  24040024.238 1 126331179.504 2     -1533.308          40.000                                                                  
E24  24792256.415 1 130284187.276 1      1192.354          45.000                                                                  
E36  23377133.562 1 122847666.669 1     -1767.357          47.000                                                                  
C14  22634559.355 1 117864089.065 1       426.532          45.000    22634567.409 1  91140022.594 2       329.981          39.000  
C24  21162754.858 1 110200018.105 1       723.792          48.000                                                                  
> 2023  9 15 18 49 22.5970000  0 16                     
G10  21591884.596 1 113466117.711 1      1749.630          46.000    21591893.907 1  88415195.305 2      1363.377          39.000  
G18  20486115.326 1 107655262.095 1     -3315.696          45.000    20486122.952 1  83887247.989 1     -2583.639          42.000  
G23  19671266.489 1 103373201.215 1       117.676          44.000    19671272.294 1  80550571.013 2        91.792          42.000  
G24  21294494.363 1 111903322.317 1     -4150.778          43.000    21294504.396 1  87197434.620 2     -3234.466          40.000  
G25  21537398.449 1 113179793.034 1      1649.055          45.000    21537410.282 1  88192094.350 2      1284.914          40.000  
G32  22844270.557 1 120047452.041 2       -34.076          41.000    22844283.877 9  93543507.455 5       -26.740          31.000  
R 1  22003449.899 1 117621051.084 2       595.515          39.000    22003463.338 4               7       463.418          30.000  
R 8  20611583.304 1 110374091.968 1      -539.855          45.000    20611591.246 2  85846549.414 4      -419.471          35.000  
R10  19909725.849 2 106130041.589 2     -2899.841          38.000                                                                  
R11  19115867.440 1 102149398.628 1      1210.753          49.000    19115871.771 1  79449551.248 1       941.772          43.000  
R23  20719698.959 1 110836417.769 1     -3429.447          43.000                                                                  
E 9  24040082.551 1 126331486.118 2     -1533.072          40.000                                                                  
E24  24792211.228 1 130283948.817 1      1192.294          45.000                                                                  
E36  23377200.788 1 122848020.129 1     -1767.391          47.000                                                                  
C14  22634542.871 1 117864003.763 1       426.359          45.000    22634551.043 1  91139956.633 2       330.038          39.000  
C24  21162727.066 1 110199873.362 1       723.622          48.000                                                                  
> 2023  9 15 18 49 22.7970000  0 16                     
G10  21591817.942 1 113465767.752 1      1749.956          46.000    21591827.344 1  88414922.617 2      1363.108          39.000  
G18  20486241.532 1 107655925.200 1     -3315.547          45.000    20486249.145 1  83887764.687 2     -2583.552          42.000  
G23  19671262.022 1 103373177.670 1       117.749          44.000    19671267.821 1  80550552.670 1        91.643          42.000  
G24  21294652.357 1 111904152.503 1     -4150.816          43.000    21294662.359 1  87198081.517 2     -3234.481          40.000  
G25  21537335.649 1 113179463.193 1      1649.359          45.000    21537347.481 1  88191837.341 2      1285.042          40.000  
G32  22844271.871 1 120047458.845 2       -33.826          41.000    22844286.766 8  93543512.781 5       -26.495          31.000  
R 1  22003427.615 1 117620931.905 2       595.734          39.000    22003440.985 4               7       463.314          30.000  
R 8  20611603.494 1 110374199.904 1      -539.741          46.000    20611611.366 2  85846633.381 3      -419.731          35.000  
R10  19909834.700 2 106130621.553 3     -2900.165          38.000                                                                  
R11  19115822.135 1 102149156.453 1      1210.820          49.000    19115826.424 1  79449362.884 1       941.901          43.000  
R23  20719827.186 1 110837103.640 1     -3429.423          43.000                                                                  
E 9  24040140.902 1 126331792.709 2     -1532.928          40.000                                                                  
E24  24792165.804 1 130283710.340 1      1192.342          45.000                                                                  
E36  23377268.031 1 122848373.596 1     -1767.370          47.000                                                                  
C14  22634526.510 1 117863918.424 1       426.573          45.000    22634534.629 1  91139890.658 2       329.771          39.000  
C24  21162699.297 1 110199728.612 1       723.816          48.000                                                                  
> 2023  9 15 18 49 22.9970000  0 16                     
G10  21591751.334 1 113465417.792 1      1749.795          46.000    21591760.747 1  88414649.919 2      1363.242          39.000  
G18  20486367.698 1 107656588.305 1     -3315.665          45.000    20486375.366 1  83888281.388 1     -2583.363          42.000  
G23  19671257.518 1 103373154.144 1       117.583          44.000    19671263.338 1  80550534.339 1        91.563          42.000  
G24  21294810.352 1 111904982.668 1     -4150.878          43.000    21294820.333 1  87198728.392 2     -3234.300          41.000  
G25  21537272.872 1 113179133.371 1      1648.995          45.000    21537284.746 1  88191580.316 2      1284.863          40.000  
G32  22844273.145 1 120047465.643 2       -34.296          41.000    22844287.609 8  93543518.024 5       -26.221          31.000  
R 1  22003405.325 1 117620812.713 2       596.025          39.000    22003418.606 4               6       463.532          30.000  
R 8  20611623.613 1 110374307.839 1      -539.891          46.000    20611631.546 2  85846717.313 3      -419.574          36.000  
R10  19909943.493 2 106131201.533 2     -2899.847          38.000                                                                  
R11  19115776.778 1 102148914.294 1      1210.480          49.000    19115781.116 1  79449174.539 1       941.714          43.000  
R23  20719955.397 1 110837789.493 1     -3429.284          43.000                                                                  
E 9  24040199.238 1 126332099.284 2     -1532.668          40.000                                                                  
E24  24792120.443 1 130283471.835 1      1192.531          45.000                                                                  
E36  23377335.254 1 122848727.051 1     -1767.366          47.000                                                                  
C14  22634510.133 1 117863833.093 1       426.474          45.000    22634518.230 1  91139824.676 2       329.777          39.000  
C24  21162671.505 1 110199583.871 1       723.576          48.000                                                                  
> 2023  9 15 18 49 23.1970000  0 16                     
G10  21591684.715 1 113465067.844 1      1749.787          46.000    21591694.143 1  88414377.226 2      1363.438          39.000  
G18  20486493.858 1 107657251.448 1     -3315.667          45.000    20486501.564 1  83888798.141 1     -2583.820          42.000  
G23  19671253.043 1 103373130.647 1       117.517          44.000    19671258.919 1  80550516.023 2        91.465          42.000  
G24  21294968.367 1 111905812.877 1     -4150.960          43.000    21294978.264 1  87199375.302 2     -3234.287          41.000  
G25  21537210.062 1 113178803.543 1      1649.166          45.000    21537221.970 1  88191323.306 2      1285.242          40.000  
G32  22844274.413 1 120047472.447 2       -33.942          41.000    22844287.959 8               6       -25.208          31.000  
R 1  22003383.013 2 117620693.536 2       596.050          39.000    22003396.396 4               6       463.632          30.000  
R 8  20611643.771 1 110374415.772 1      -539.574          46.000    20611651.717 2  85846801.279 3      -419.509          36.000  
R10  19910052.312 2 106131781.581 2     -2900.232          38.000                                                                  
R11  19115731.465 1 102148672.182 1      1210.583          49.000    19115735.829 1  79448986.228 1       941.778          43.000  
R23  20720083.623 1 110838475.425 1     -3429.646          43.000                                                                  
E 9  24040257.618 1 126332405.878 2     -1532.771          40.000                                                                  
E24  24792075.019 1 130283233.377 1      1192.344          45.000                                                                  
E36  23377402.505 1 122849080.557 1     -1767.378          47.000                                                                  
C14  22634493.813 1 117863747.764 1       426.635          45.000    22634501.849 1  91139758.687 2       329.759          39.000  
C24  21162643.818 1 110199439.157 1       723.617          48.000                                                                  
> 2023  9 15 18 49 23.3970000  0 16                     
G10  21591618.093 1 113464717.928 1      1749.529          46.000    21591627.546 1  88414104.553 2      1363.477          39.000  
G18  20486620.068 1 107657914.645 1     -3316.106          45.000    20486627.784 1  83889314.905 1     -2583.961          42.000  
G23  19671248.588 1 103373107.195 1       116.934          44.000    19671254.442 1  80550497.742 2        91.307          42.000  
G24  21295126.310 1 111906643.109 1     -4151.272          43.000    21295136.263 1  87200022.239 2     -3234.571          41.000  
G25  21537147.323 1 113178473.774 1      1648.609          45.000    21537159.278 1  88191066.353 2      1284.598          40.000  
G32  22844275.724 1 120047479.283 2       -34.357          41.000    22844288.623 8               6       -27.191          31.000  
R 1  22003360.768 1 117620574.394 2       595.516          39.000    22003374.080 4               6       464.148          30.000  
R 8  20611663.915 1 110374523.751 1      -540.082          46.000    20611671.868 2  85846885.264 3      -420.002          36.000  
R10  19910161.175 2 106132361.683 3     -2900.891          38.000                                                                  
R11  19115686.227 1 102148430.122 1      1210.172          49.000    19115690.490 1  79448797.967 1       941.411          43.000  
R23  20720211.798 1 110839161.371 1     -3430.085          42.000                                                                  
E 9  24040315.972 1 126332712.507 2     -1533.222          40.000                                                                  
E24  24792029.649 1 130282994.937 1      1192.034          45.000                                                                  
E36  23377469.832 1 122849434.112 1     -1768.022          47.000                                                                  
C14  22634477.466 1 117863662.463 1       426.237          45.000    22634485.456 1  91139692.710 2       329.865          39.000  
C24  21162616.025 1 110199294.492 1       723.174          48.000                                                                  
> 2023  9 15 18 49 23.5970000  0 16                     
G10  21591551.485 1 113464367.998 1      1749.561          46.000    21591560.981 1  88413831.880 2      1363.644          39.000  
G18  20486746.303 1 107658577.828 1     -3315.981          45.000    20486754.017 1  83889831.676 2     -2583.729          42.000  
G23  19671244.120 1 103373083.726 1       117.179          44.000    19671249.954 1  80550479.457 2        91.746          42.000  
G24  21295284.267 1 111907473.334 1     -4151.246          43.000    21295294.259 1  87200669.183 2     -3234.385          41.000  
G25  21537084.548 1 113178143.965 1      1648.984          45.000    21537096.552 1  88190809.363 2      1284.852          40.000  
G32  22844276.985 1 120047486.089 2       -33.759          41.000    22844290.098 8               7       -27.045          31.000  
R 1  22003338.409 1 117620455.193 2       596.036          39.000    22003351.717 4               7       463.186          30.000  
R 8  20611684.090 1 110374631.698 1      -539.761          46.000    20611692.102 2  85846969.193 3      -419.070          36.000  
R10  19910269.972 2 106132941.789 3     -2900.421          38.000                                                                  
R11  19115640.952 1 102148188.065 1      1210.265          49.000    19115645.146 1  79448609.701 1       941.358          43.000  
R23  20720340.041 1 110839847.314 1     -3429.530          42.000                                                                  
E 9  24040374.292 1 126333019.082 2     -1533.000          40.000                                                                  
E24  24791984.227 1 130282756.478 1      1192.267          45.000                                                                  
E36  23377537.055 1 122849787.642 1     -1767.619          47.000                                                                  
C14  22634461.097 1 117863577.133 1       426.648          45.000    22634469.062 1  91139626.746 2       329.840          39.000  
C24  21162588.233 1 110199149.816 1       723.431          48.000                                                                  
> 2023  9 15 18 49 23.7970000  0 16                     
G10  21591484.892 1 113464018.050 1      1749.731          46.000    21591494.391 1  88413559.196 2      1363.793          39.000  
G18  20486872.525 1 107659241.027 1     -3316.112          45.000    20486880.191 1  83890348.459 2     -2584.180          42.000  
G23  19671239.615 1 103373060.261 1       117.365          44.000    19671245.511 1  80550461.196 2        91.216          42.000  
G24  21295442.216 1 111908303.563 2     -4151.351          43.000    21295452.192 1  87201316.112 2     -3234.999          40.000  
G25  21537021.746 1 113177814.159 1      1649.049          45.000    21537033.803 1  88190552.377 2      1284.748          40.000  
G32  22844278.281 1 120047492.918 2       -34.204          41.000    22844291.293 8               7       -26.459          31.000  
R 1  22003316.081 1 117620336.005 2       595.987          39.000    22003329.408 4               7       462.606          30.000  
R 8  20611704.219 1 110374739.636 1      -539.662          46.000    20611712.302 2  85847053.181 3      -420.155          36.000  
R10  19910378.768 2 106133521.938 2     -2901.001          38.000                                                                  
R11  19115595.708 1 102147946.033 1      1210.010          49.000    19115599.812 1  79448421.460 1       941.233          43.000  
R23  20720468.227 1 110840533.291 2     -3429.882          42.000                                                                  
E 9  24040432.633 1 126333325.663 2     -1532.715          40.000                                                                  
E24  24791938.866 1 130282518.011 1      1192.310          45.000                                                                  
E36  23377604.287 1 122850141.209 1     -1767.918          47.000                                                                  
C14  22634444.709 1 117863491.793 1       426.691          45.000    22634452.649 1  91139560.761 2       329.635          39.000  
C24  21162560.433 1 110199005.163 1       723.153          48.000                                                                  
> 2023  9 15 18 49 23.9970000  0 16                     
G10  21591418.306 1 113463668.118 1      1749.670          46.000    21591427.791 1  88413286.557 2      1363.103          39.000  
G18  20486998.774 1 107659904.242 1     -3316.257          45.000    20487006.409 1  83890865.243 1     -2583.848          42.000  
G23  19671235.126 1 103373036.839 1       116.959          44.000    19671241.060 1  80550442.928 2        91.246          42.000  
G24  21295600.233 1 111909133.800 2     -4151.187          43.000    21295610.206 1  87201963.057 2     -3234.938          40.000  
G25  21536958.987 1 113177484.374 1      1648.994          44.000    21536971.082 1  88190295.381 2      1285.062          40.000  
G32  22844279.609 1 120047499.720 2       -34.106          40.000    22844292.016 8               7       -26.465          31.000  
R 1  22003293.742 2 117620216.793 3       595.977          39.000    22003307.075 4               7       463.396          30.000  
R 8  20611724.353 1 110374847.583 1      -539.680          46.000    20611732.449 2  85847137.141 3      -420.057          36.000  
R10  19910487.578 2 106134102.109 3     -2901.269          38.000                                                                  
R11  19115550.443 1 102147704.025 1      1209.944          49.000    19115554.505 1  79448233.231 1       941.105          43.000  
R23  20720596.512 1 110841219.282 1     -3429.936          42.000                                                                  
E 9  24040491.106 1 126333632.252 2     -1532.961          40.000                                                                  
E24  24791893.459 1 130282279.566 1      1192.154          45.000                                                                  
E36  23377671.599 1 122850494.780 1     -1767.882          47.000                                                                  
C14  22634428.358 1 117863406.459 1       426.623          45.000    22634436.265 1  91139494.766 2       329.906          39.000  
C24  21162532.635 1 110198860.529 1       723.108          48.000                                                                  
> 2023  9 15 18 49 24.1970000  0 17                     
G10  21591351.661 1 113463318.200 1      1749.463          46.000    21591361.152 1  88413013.881 2      1363.066          39.000  
G18  20487125.015 1 107660567.476 1     -3316.134          45.000    20487132.678 1  83891382.055 2     -2584.082          42.000  
G23  19671230.652 1 103373013.424 1       116.855          44.000    19671236.601 1  80550424.692 2        91.075          42.000  
G24  21295758.211 1 111909964.069 2     -4151.420          43.000    21295768.198 1  87202609.998 2     -3234.782          40.000  
G25  21536896.206 1 113177154.607 1      1648.627          44.000    21536908.341 1  88190038.438 2      1284.548          40.000  
G32  22844280.958 1 120047506.545 2       -34.229          40.000    22844293.428 8               7       -26.428          31.000  
R 1  22003271.442 2 117620097.602 3       595.859          39.000    22003284.744 4               7       463.119          30.000  
R 8  20611744.557 1 110374955.543 1      -539.948          46.000    20611752.590 2  85847221.090 3      -419.706          36.000  
R10  19910596.397 2 106134682.311 3     -2901.324          38.000                                                                  
R11  19115505.120 1 102147462.068 1      1209.714          49.000    19115509.207 1  79448045.042 1       941.013          43.000  
R23  20720724.687 1 110841905.298 2     -3430.152          42.000                                                                  
E 9  24040549.446 1 126333938.853 2     -1533.209          40.000                                                                  
E11  23587013.623 9 123950592.482 3     -3699.987          40.000                                                                  
E24  24791848.129 1 130282041.119 1      1192.074          45.000                                                                  
E36  23377738.905 1 122850848.385 1     -1768.283          47.000                                                                  
C14  22634411.950 1 117863321.138 1       426.445          45.000    22634419.882 1  91139428.793 2       329.864          39.000  
C24  21162504.873 1 110198715.918 1       722.967          48.000                                                                  
> 2023  9 15 18 49 24.3970000  0 17                     
G10  21591285.081 1 113462968.286 1      1749.541          46.000    21591294.532 1  88412741.221 2      1363.387          39.000  
G18  20487251.241 1 107661230.755 1     -3316.497          45.000    20487258.876 1  83891898.875 2     -2584.103          42.000  
G23  19671226.209 1 103372990.021 1       116.998          44.000    19671232.169 1  80550406.454 1        91.062          42.000  
G24  21295916.232 1 111910794.324 2     -4151.397          43.000    21295926.205 1  87203256.946 2     -3234.658          40.000  
G25  21536833.431 1 113176824.828 1      1648.948          44.000    21536845.580 1  88189781.464 2      1284.694          40.000  
G32  22844282.295 1 120047513.364 2       -33.972          40.000    22844294.551 8               6       -26.764          31.000  
R 1  22003249.129 2 117619978.393 3       595.864          39.000    22003262.380 4               7       463.419          30.000  
R 8  20611764.664 1 110375063.483 1      -539.613          46.000    20611772.692 2  85847305.091 3      -420.278          36.000  
R10  19910705.227 2 106135262.561 2     -2901.379          37.000                                                                  
R11  19115459.906 1 102147220.123 1      1209.666          49.000    19115463.937 1  79447856.877 1       940.667          43.000  
R23  20720852.897 1 110842591.338 1     -3430.212          42.000                                                                  
E 9  24040607.814 1 126334245.439 2     -1533.062          40.000                                                                  
E11  23587154.479 9 123951332.512 3     -3700.205          40.000                                                                  
E24  24791802.759 1 130281802.687 1      1192.196          45.000                                                                  
E36  23377806.125 1 122851201.997 1     -1768.063          46.000                                                                  
C14  22634395.527 1 117863235.812 1       426.494          45.000    22634403.459 1  91139362.793 2       330.141          39.000  
C24  21162477.125 1 110198571.330 1       722.910          48.000                                                                  
> 2023  9 15 18 49 24.5970000  0 17                     
G10  21591218.474 1 113462618.392 1      1749.397          46.000    21591227.935 1  88412468.570 2      1363.339          39.000  
G18  20487377.476 1 107661894.059 1     -3316.610          45.000    20487385.084 1  83892415.734 2     -2584.191          42.000  
G23  19671221.789 1 103372966.681 1       116.581          44.000    19671227.732 1  80550388.259 2        90.973          42.000  
G24  21296074.213 1 111911624.626 1     -4151.644          43.000    21296084.241 1  87203903.938 2     -3234.940          40.000  
G25  21536770.657 1 113176495.088 1      1648.711          44.000    21536782.857 1  88189524.524 2      1284.676          40.000  
G32  22844283.583 1 120047520.217 2       -34.210          40.000    22844295.313 8               6       -26.843          31.000  
R 1  22003226.824 2 117619859.200 3       595.979          39.000    22003240.018 4               7       464.121          30.000  
R 8  20611784.820 1 110375171.456 1      -539.734          46.000    20611792.869 2  85847389.050 3      -420.126          36.000  
R10  19910814.042 2 106135842.846 2     -2901.587          38.000                                                                  
R11  19115414.644 1 102146978.240 1      1209.348          49.000    19115418.644 1  79447668.741 1       940.712          43.000  
R23  20720981.124 1 110843277.418 1     -3430.424          42.000                                                                  
E 9  24040666.122 1 126334552.027 2     -1532.895          40.000                                                                  
E11  23587294.722 9 123952072.563 3     -3700.418          40.000                                                                  
E24  24791757.381 1 130281564.272 1      1192.008          45.000                                                                  
E36  23377873.457 1 122851555.658 1     -1768.367          46.000                                                                  
C14  22634379.151 1 117863150.498 1       426.494          45.000    22634387.104 1  91139296.837 2       329.827          40.000  
C24  21162449.396 1 110198426.775 1       722.627          48.000                                                                  
> 2023  9 15 18 49 24.7970000  0 17                     
G10  21591151.894 1 113462268.495 1      1749.578          46.000    21591161.338 1  88412195.931 2      1363.306          39.000  
G18  20487503.669 1 107662557.380 2     -3316.670          45.000    20487511.362 1  83892932.612 2     -2584.485          42.000  
G23  19671217.325 1 103372943.330 1       116.624          44.000    19671223.311 1  80550370.057 2        91.046          42.000  
G24  21296232.219 1 111912454.934 1     -4151.556          43.000    21296242.259 1  87204550.928 2     -3234.999          40.000  
G25  21536707.864 1 113176165.344 1      1648.835          44.000    21536720.148 1  88189267.586 2      1284.514          40.000  
G32  22844284.915 1 120047527.054 2       -34.088          40.000    22844296.772 4               6       -26.459          31.000  
R 1  22003204.505 2 117619739.984 3       596.056          39.000    22003217.778 4               7       462.869          30.000  
R 8  20611804.992 1 110375279.432 1      -539.928          46.000    20611812.969 2  85847473.006 3      -419.940          36.000  
R10  19910922.941 2 106136423.168 2     -2901.605          38.000                                                                  
R11  19115369.430 1 102146736.383 1      1209.252          49.000    19115373.368 1  79447480.634 1       940.507          43.000  
R23  20721109.423 1 110843963.507 1     -3430.359          42.000                                                                  
E 9  24040724.554 1 126334858.630 2     -1532.958          40.000                                                                  
E11  23587434.928 9 123952812.609 3     -3700.218          40.000                                                                  
E24  24791711.946 1 130281325.862 1      1192.142          45.000                                                                  
E36  23377940.766 1 122851909.330 1     -1768.385          46.000                                                                  
C14  22634362.730 1 117863065.181 1       426.519          45.000    22634370.701 1  91139230.865 2       329.814          40.000  
C24  21162421.644 1 110198282.228 1       722.804          48.000                                                                  
> 2023  9 15 18 49 24.9970000  0 17                     
G10  21591085.300 1 113461918.609 1      1749.132          46.000    21591094.766 1  88411923.291 2      1363.029          39.000  
G18  20487629.877 1 107663220.702 2     -3316.826          45.000    20487637.579 1  83893449.492 2     -2584.700          42.000  
G23  19671212.894 1 103372920.011 1       116.249          44.000    19671218.886 1  80550351.886 1        90.739          42.000  
G24  21296390.239 1 111913285.247 1     -4152.025          43.000    21296400.274 1  87205197.924 2     -3235.159          40.000  
G25  21536645.113 1 113175835.619 1      1648.423          44.000    21536657.421 1  88189010.641 2      1284.540          40.000  
G32  22844286.251 1 120047533.897 2       -34.363          40.000    22844297.957 8               6       -27.313          30.000  
R 1  22003182.210 1 117619620.790 3       595.895          39.000    22003195.523 4               7       462.940          30.000  
R 8  20611825.139 1 110375387.391 1      -540.096          46.000    20611833.079 2  85847556.972 3      -419.880          36.000  
R10  19911031.762 2 106137003.518 3     -2901.599          38.000                                                                  
R11  19115324.238 1 102146494.552 1      1208.764          49.000    19115328.118 1  79447292.537 1       940.332          43.000  
R23  20721237.672 1 110844649.624 1     -3430.904          43.000                                                                  
E 9  24040782.929 1 126335165.219 2     -1533.183          40.000                                                                  
E11  23587577.247 8 123953552.656 2     -3700.558          40.000                                                                  
E24  24791666.609 1 130281087.460 1      1191.806          45.000                                                                  
E36  23378008.039 1 122852263.014 1     -1768.697          46.000                                                                  
C14  22634346.349 1 117862979.871 1       426.106          45.000    22634354.267 1  91139164.876 2       329.957          40.000  
C24  21162393.840 1 110198137.707 1       722.293          48.000                                                                  
> 2023  9 15 18 49 25.1970000  0 17                     
G10  21591018.731 1 113461568.730 1      1749.368          46.000    21591028.192 1  88411650.655 2      1362.933          39.000  
G18  20487756.081 1 107663884.072 2     -3316.974          45.000    20487763.866 1  83893966.400 2     -2584.709          42.000  
G23  19671208.486 1 103372896.694 1       116.540          44.000    19671214.475 1  80550333.734 1        90.733          42.000  
G24  21296548.191 1 111914115.576 2     -4151.750          43.000    21296558.280 1  87205844.947 2     -3235.143          40.000  
G25  21536582.362 1 113175505.892 1      1648.501          45.000    21536594.652 1  88188753.711 2      1284.659          40.000  
G32  22844287.528 1 120047540.755 2       -34.204          40.000    22844298.869 8               7       -27.448          30.000  
R 1  22003159.937 1 117619501.601 3       595.523          39.000    22003173.239 4               7       463.038          30.000  
R 8  20611845.249 1 110375495.360 1      -539.841          46.000    20611853.211 2  85847640.941 3      -419.533          36.000  
R10  19911140.659 2 106137583.927 3     -2902.283          38.000                                                                  
R11  19115278.943 1 102146252.739 1      1208.956          49.000    19115282.869 1  79447104.475 1       940.275          43.000  
R23  20721365.997 1 110845335.761 1     -3430.861          43.000                                                                  
E 9  24040841.328 1 126335471.810 2     -1533.005          40.000                                                                  
E11  23587716.886 8 123954292.709 2     -3700.170          40.000                                                                  
E24  24791621.147 1 130280849.061 1      1192.022          45.000                                                                  
E36  23378075.354 1 122852616.733 1     -1768.572          46.000                                                                  
C14  22634329.941 1 117862894.551 1       426.370          45.000    22634337.890 1  91139098.934 2       329.562          40.000  
C24  21162366.060 1 110197993.213 1       722.310          48.000                                                                  
> 2023  9 15 18 49 25.3970000  0 17                     
G10  21590952.156 1 113461218.891 1      1749.152          46.000    21590961.616 1  88411378.049 2      1363.180          39.000  
G18  20487882.273 1 107664547.490 1     -3317.257          45.000    20487890.159 1  83894483.347 2     -2584.818          42.000  
G23  19671204.092 1 103372873.441 1       116.204          44.000    19671210.043 1  80550315.616 1        90.601          42.000  
G24  21296706.203 1 111914945.942 1     -4151.811          43.000    21296716.316 1  87206491.978 2     -3235.193          40.000  
G25  21536519.601 1 113175176.216 1      1648.513          45.000    21536531.975 1  88188496.816 2      1284.606          40.000  
G32  22844288.842 1 120047547.656 2       -34.412          40.000    22844300.050 8               7       -26.886          30.000  
R 1  22003137.651 2 117619382.392 3       595.898          39.000    22003150.960 4               7       462.736          30.000  
R 8  20611865.394 1 110375603.366 1      -540.096          46.000    20611873.359 2  85847724.947 3      -419.869          36.000  
R10  19911249.515 2 106138164.396 3     -2902.746          38.000                                                                  
R11  19115233.693 1 102146011.019 1      1208.632          49.000    19115237.651 1  79446916.466 1       939.925          43.000  
R23  20721494.287 1 110846021.962 1     -3431.095          43.000                                                                  
E 9  24040899.738 1 126335778.458 2     -1533.335          40.000                                                                  
E11  23587856.687 8 123955032.831 3     -3700.651          40.000                                                                  
E24  24791575.803 1 130280610.710 1      1191.633          45.000                                                                  
E36  23378142.668 1 122852970.507 1     -1768.992          46.000                                                                  
C14  22634313.573 1 117862809.271 1       426.410          45.000    22634321.521 1  91139032.979 2       329.761          40.000  
C24  21162338.364 1 110197848.761 1       722.216          48.000                                                                  
> 2023  9 15 18 49 25.5970000  0 17                     
G10  21590885.585 1 113460869.063 1      1748.865          46.000    21590895.039 1  88411105.465 2      1362.599          39.000  
G18  20488008.532 1 107665210.924 1     -3317.426          45.000    20488016.423 1  83895000.308 1     -2585.172          42.000  
G23  19671199.612 1 103372850.210 1       116.027          44.000    19671205.656 1  80550297.511 1        90.410          42.000  
G24  21296864.231 1 111915776.325 1     -4151.948          43.000    21296874.346 1  87207139.035 2     -3235.390          40.000  
G25  21536456.882 1 113174846.558 1      1648.145          45.000    21536469.237 1  88188239.937 2      1284.359          40.000  
G32  22844290.178 1 120047554.541 2       -34.552          40.000    22844301.151 8               7       -26.410          30.000  
R 1  22003115.305 2 117619263.210 2       595.745          39.000    22003128.646 4                       462.842          30.000  
R 8  20611885.511 1 110375711.370 1      -540.160          46.000    20611893.554 2  85847808.956 3      -420.095          36.000  
R10  19911358.355 2 106138744.877 3     -2902.600          38.000                                                                  
R11  19115188.424 1 102145769.327 1      1208.239          49.000    19115192.388 1  79446728.468 1       939.824          43.000  
R23  20721622.618 1 110846708.172 1     -3431.267          43.000                                                                  
E 9  24040958.139 1 126336085.073 2     -1533.270          40.000                                                                  
E11  23587997.712 8 123955772.944 3     -3700.591          40.000                                                                  
E24  24791530.472 1 130280372.354 1      1191.642          45.000                                                                  
E36  23378209.952 1 122853324.303 1     -1769.223          46.000                                                                  
C14  22634297.242 1 117862723.990 1       426.262          45.000    22634305.157 1  91138967.037 2       329.687          40.000  
C24  21162310.579 1 110197704.341 1       721.984          48.000                                                                  
> 2023  9 15 18 49 25.7970000  0 17                     
G10  21590818.998 1 113460519.216 1      1749.172          46.000    21590828.448 1  88410832.846 2      1363.063          39.000  
G18  20488134.799 1 107665874.353 1     -3317.018          45.000    20488142.712 1  83895517.266 2     -2584.714          42.000  
G23  19671195.181 1 103372826.981 1       116.174          44.000    19671201.275 1  80550279.405 1        90.713          42.000  
G24  21297022.272 1 111916606.719 1     -4151.882          43.000    21297032.426 1  87207786.086 2     -3235.321          40.000  
G25  21536394.141 1 113174516.871 1      1648.457          45.000    21536406.545 1  88187983.063 2      1284.312          40.000  
G32  22844291.466 1 120047561.422 2       -34.088          40.000    22844302.131 8               7       -26.630          30.000  
R 1  22003093.002 2 117619144.003 2       596.134          38.000    22003106.348 4                       464.593          29.000  
R 8  20611905.644 1 110375819.368 1      -539.912          46.000    20611913.669 2  85847892.956 3      -419.802          36.000  
R10  19911467.259 2 106139325.423 3     -2903.107          38.000                                                                  
R11  19115143.234 1 102145527.649 1      1208.443          49.000    19115147.146 1  79446540.514 1       939.737          44.000  
R23  20721750.907 1 110847394.395 1     -3431.056          43.000                                                                  
E 9  24041016.519 1 126336391.699 2     -1533.036          40.000                                                                  
E11  23588138.858 4 123956513.080 3     -3700.727          40.000                                                                  
E24  24791485.229 1 130280134.002 1      1191.803          45.000                                                                  
E36  23378277.149 1 122853678.099 1     -1769.011          46.000                                                                  
C14  22634280.817 1 117862638.702 1       426.434          45.000    22634288.786 1  91138901.091 2       329.772          40.000  
C24  21162282.847 1 110197559.917 1       722.124          48.000                                                                  
> 2023  9 15 18 49 25.9970000  0 17                     
G10  21590752.457 1 113460169.373 1      1749.117          46.000    21590761.886 1  88410560.257 2      1362.790          39.000  
G18  20488261.102 1 107666537.832 1     -3317.447          45.000    20488268.956 1  83896034.246 1     -2584.814          42.000  
G23  19671190.768 1 103372803.773 1       116.065          44.000    19671196.923 1  80550261.339 1        90.171          42.000  
G24  21297180.281 1 111917437.124 2     -4152.042          43.000    21297190.457 1  87208433.145 2     -3235.186          40.000  
G25  21536331.430 1 113174187.218 1      1648.322          45.000    21536343.812 1  88187726.179 2      1284.447          40.000  
G32  22844292.764 1 120047568.329 2       -34.399          40.000    22844302.871 8               6       -27.191          30.000  
R 1  22003070.736 2 117619024.792 2       596.119          38.000    22003084.063 4                       462.809          29.000  
R 8  20611925.803 1 110375927.371 1      -540.120          46.000    20611933.792 2  85847976.950 3      -419.810          36.000  
R10  19911576.166 2 106139905.963 3     -2902.905          38.000                                                                  
R11  19115098.011 1 102145286.010 1      1207.982          49.000    19115101.912 1  79446352.568 1       939.488          44.000  
R23  20721879.148 1 110848080.654 1     -3431.443          43.000                                                                  
E 9  24041074.903 1 126336698.326 2     -1533.391          40.000                                                                  
E11  23588279.604 4 123957253.221 3     -3701.220          40.000                                                                  
E24  24791439.855 1 130279895.643 1      1191.746          45.000                                                                  
E36  23378344.656 1 122854031.927 1     -1769.381          46.000                                                                  
C14  22634264.428 1 117862553.417 1       426.379          45.000    22634272.416 1  91138835.144 2       329.594          40.000  
C24  21162255.165 1 110197415.533 1       721.742          48.000                                                                  
> 2023  9 15 18 49 26.1970000  0 17                     
G10  21590685.886 1 113459819.517 1      1749.366          46.000    21590695.276 1  88410287.642 3      1363.140          39.000  
G18  20488387.392 1 107667201.287 1     -3317.308          45.000    20488395.226 1  83896551.234 2     -2584.771          42.000  
G23  19671186.362 1 103372780.559 1       116.175          44.000    19671192.479 1  80550243.233 2        90.539          42.000  
G24  21297338.291 1 111918267.504 1     -4152.124          43.000    21297348.478 1  87209080.207 2     -3235.145          40.000  
G25  21536268.691 1 113173857.534 1      1648.509          45.000    21536281.080 1  88187469.292 2      1284.447          40.000  
G32  22844294.039 1 120047575.198 2       -34.119          40.000    22844304.016 4               6       -26.569          29.000  
R 1  22003048.395 2 117618905.576 2       596.171          38.000    22003061.769 4               7       464.064          29.000  
R 8  20611945.957 1 110376035.333 1      -539.686          46.000    20611953.979 2  85848060.937 3      -419.830          36.000  
R10  19911685.050 2 106140486.529 3     -2902.911          38.000                                                                  
R11  19115052.761 1 102145044.356 1      1208.319          49.000    19115056.719 1  79446164.616 1       939.738          44.000  
R23  20722007.414 1 110848766.893 1     -3431.222          43.000                                                                  
E 9  24041133.247 1 126337004.911 2     -1532.793          40.000                                                                  
E11  23588420.126 4 123957993.319 3     -3700.452          40.000                                                                  
E24  24791394.483 1 130279657.266 1      1191.972          45.000                                                                  
E36  23378411.919 1 122854385.715 1     -1768.810          46.000                                                                  
C14  22634248.006 1 117862468.101 1       426.679          45.000    22634255.990 1  91138769.175 2       329.734          40.000  
C24  21162227.445 1 110197271.118 1       722.067          47.000                                                                  
> 2023  9 15 18 49 26.3970000  0 17                     
G10  21590619.349 1 113459469.679 1      1749.271          46.000    21590628.673 1  88410015.027 3      1363.198          39.000  
G18  20488513.692 1 107667864.789 1     -3317.640          45.000    20488521.521 1  83897068.240 2     -2584.960          42.000  
G23  19671181.969 1 103372757.372 1       115.929          44.000    19671188.051 1  80550225.173 1        90.325          42.000  
G24  21297496.298 1 111919097.914 1     -4152.037          43.000    21297506.499 1  87209727.276 2     -3235.372          40.000  
G25  21536205.991 1 113173527.884 1      1648.416          44.000    21536218.339 1  88187212.426 2      1284.229          40.000  
G32  22844295.364 1 120047582.100 2       -34.418          41.000    22844305.395 4               6       -26.984          29.000  
R 1  22003026.117 2 117618786.331 2       596.184          38.000    22003039.431 4                       465.018          29.000  
R 8  20611966.179 1 110376143.327 1      -539.812          46.000    20611974.139 2  85848144.934 3      -419.987          36.000  
R10  19911793.969 2 106141067.144 3     -2903.040          38.000                                                                  
R11  19115007.528 1 102144802.757 1      1208.034          49.000    19115011.472 1  79445976.701 1       939.650          44.000  
R23  20722135.741 1 110849453.173 1     -3431.195          43.000                                                                  
E 9  24041191.568 1 126337311.515 2     -1532.888          40.000                                                                  
E11  23588560.745 4 123958733.442 2     -3700.523          40.000                                                                  
E24  24791349.139 1 130279418.937 1      1191.734          45.000                                                                  
E36  23378479.263 1 122854739.572 1     -1769.095          46.000                                                                  
C14  22634231.624 1 117862382.807 1       426.514          45.000    22634239.614 1  91138703.207 2       329.765          40.000  
C24  21162199.655 1 110197126.758 1       721.778          47.000                                                                  
> 2023  9 15 18 49 26.5970000  0 17                     
G10  21590552.776 1 113459119.868 1      1748.785          46.000    21590562.098 1  88409742.454 3      1362.555          38.000  
G18  20488639.964 1 107668528.290 1     -3317.689          45.000    20488647.853 1  83897585.270 2     -2585.272          42.000  
G23  19671177.529 1 103372734.213 1       115.654          44.000    19671183.636 1  80550207.138 1        89.908          42.000  
G24  21297654.274 1 111919928.341 1     -4152.596          43.000    21297664.538 1  87210374.372 2     -3235.797          40.000  
G25  21536143.286 1 113173198.247 1      1647.943          45.000    21536155.603 1  88186955.556 2      1284.211          40.000  
G32  22844296.657 1 120047588.996 2       -34.729          41.000    22844306.550 4               6       -26.813          29.000  
R 1  22003003.820 2 117618667.108 2       596.253          38.000    22003017.133 4                       463.687          29.000  
R 8  20611986.390 1 110376251.329 1      -540.156          46.000    20611994.281 2  85848228.915 3      -419.810          36.000  
R10  19911902.854 2 106141647.790 3     -2903.265          37.000                                                                  
R11  19114962.321 1 102144561.194 1      1207.559          49.000    19114966.208 1  79445788.823 1       939.297          44.000  
R23  20722264.052 1 110850139.492 1     -3431.803          42.000                                                                  
E 9  24041249.935 1 126337618.133 2     -1533.323          40.000                                                                  
E11  23588701.565 4 123959473.581 2     -3700.716          40.000                                                                  
E24  24791303.801 1 130279180.612 1      1191.371          45.000                                                                  
E36  23378546.719 1 122855093.449 1     -1769.604          46.000                                                                  
C14  22634215.319 1 117862297.520 1       426.107          45.000    22634223.241 1  91138637.252 2       329.848          40.000  
C24  21162171.899 1 110196982.409 1       721.465          47.000                                                                  
> 2023  9 15 18 49 26.7970000  0 17                     
G10  21590486.185 1 113458770.062 1      1749.036          47.000    21590495.588 1  88409469.872 3      1362.886          38.000  
G18  20488766.231 1 107669191.858 1     -3317.759          45.000    20488774.128 1  83898102.336 2     -2585.443          42.000  
G23  19671173.089 1 103372711.089 1       115.638          44.000    19671179.242 1  80550189.109 1        90.056          42.000  
G24  21297812.287 1 111920758.788 2     -4152.021          43.000    21297822.583 1  87211021.476 2     -3235.625          40.000  
G25  21536080.563 1 113172868.637 1      1647.922          45.000    21536092.925 1  88186698.732 2      1283.819          40.000  
G32  22844297.988 1 120047595.917 2       -34.650          41.000    22844307.607 4               6       -27.332          29.000  
R 1  22002981.495 2 117618547.904 2       596.086          38.000    22002994.683 4                       463.654          29.000  
R 8  20612006.563 1 110376359.344 1      -540.077          46.000    20612014.392 2  85848312.954 3      -420.414          36.000  
R10  19912011.751 2 106142228.515 3     -2903.637          37.000                                                                  
R11  19114917.109 1 102144319.685 1      1207.450          49.000    19114921.042 1  79445600.989 1       939.121          44.000  
R23  20722392.385 1 110850825.846 1     -3431.862          42.000                                                                  
E 9  24041308.345 1 126337924.771 2     -1533.287          40.000                                                                  
E11  23588842.158 4 123960213.770 2     -3700.841          40.000                                                                  
E24  24791258.374 1 130278942.298 1      1191.603          45.000                                                                  
E36  23378614.098 1 122855447.366 1     -1769.591          46.000                                                                  
C14  22634198.944 1 117862212.240 1       426.367          45.000    22634206.843 1  91138571.321 2       329.601          40.000  
C24  21162144.166 1 110196838.108 1       721.538          47.000                                                                  
> 2023  9 15 18 49 26.9970000  0 17                     
G10  21590419.620 1 113458420.266 1      1748.833          47.000    21590429.045 1  88409197.303 3      1362.670          39.000  
G18  20488892.527 1 107669855.432 1     -3318.187          45.000    20488900.413 1  83898619.398 2     -2585.747          42.000  
G23  19671168.693 1 103372687.985 1       115.187          44.000    19671174.797 1  80550171.106 1        89.804          42.000  
G24  21297970.301 1 111921589.260 1     -4152.474          43.000    21297980.617 1  87211668.599 2     -3235.778          40.000  
G25  21536017.817 1 113172539.017 1      1647.904          44.000    21536030.201 1  88186441.876 2      1284.275          40.000  
G32  22844299.274 1 120047602.829 2       -34.808          41.000    22844308.777 4               6       -27.008          29.000  
R 1  22002959.150 2 117618428.687 2       595.697          38.000    22002972.340 4                       463.840          29.000  
R 8  20612026.680 1 110376467.345 1      -540.096          46.000    20612034.531 2  85848396.938 3      -420.195          36.000  
R10  19912120.710 2 106142809.250 3     -2903.918          38.000                                                                  
R11  19114871.944 1 102144078.201 1      1207.282          49.000    19114875.886 1  79445413.166 1       938.927          44.000  
R23  20722520.693 1 110851512.201 1     -3432.028          42.000                                                                  
E 9  24041366.718 1 126338231.382 2     -1533.034          40.000                                                                  
E11  23588983.029 2 123960953.931 2     -3701.052          40.000                                                                  
E24  24791213.059 1 130278703.985 1      1191.456          45.000                                                                  
E36  23378681.450 1 122855801.294 1     -1769.849          46.000                                                                  
C14  22634182.553 1 117862126.966 1       426.243          45.000    22634190.492 1  91138505.378 2       329.502          40.000  
C24  21162116.416 1 110196693.818 1       721.209          47.000                                                                  
> 2023  9 15 18 49 27.1970000  0 18                     
G10  21590353.081 1 113458070.500 1      1748.810          46.000    21590362.509 1  88408924.758 3      1362.670          39.000  
G18  20489018.787 1 107670519.042 1     -3318.026          45.000    20489026.730 1  83899136.502 2     -2585.540          42.000  
G23  19671164.302 1 103372664.903 1       115.306          44.000    19671170.384 1  80550153.125 1        89.867          42.000  
G24  21298128.381 1 111922419.748 1     -4152.266          43.000    21298138.663 1  87212315.735 2     -3235.687          40.000  
G25  21535955.094 1 113172209.435 1      1647.862          45.000    21535967.493 1  88186185.073 2      1283.762          40.000  
G32  22844300.599 1 120047609.780 2       -34.564          41.000    22844309.930 4               6       -27.014          29.000  
R 1  22002936.833 2 117618309.479 2       596.029          38.000    22002950.020 4                       463.093          29.000  
R 8  20612046.794 1 110376575.379 1      -540.200          46.000    20612054.708 2  85848480.978 3      -420.366          36.000  
R10  19912229.650 2 106143390.053 3     -2904.187          38.000                                                                  
R11  19114826.785 1 102143836.775 1      1207.010          49.000    19114830.685 1  79445225.383 1       938.941          44.000  
R23  20722648.994 1 110852198.603 1     -3432.083          42.000                                                                  
R26 320530084.510 1              11      -582.182          45.000   320530094.266 1              12      -452.657          40.000  
E 9  24041425.148 1 126338538.051 2     -1533.367          40.000                                                                  
E11  23589123.864 2 123961694.142 2     -3701.101          40.000                                                                  
E24  24791167.771 1 130278465.701 1      1191.489          45.000                                                                  
E36  23378748.858 1 122856155.260 1     -1769.856          46.000                                                                  
C14  22634166.248 1 117862041.707 1       426.436          45.000    22634174.102 1  91138439.450 2       329.663          40.000  
C24  21162088.783 1 110196549.566 1       721.312          48.000                                                                  
> 2023  9 15 18 49 27.3970000  0 18                     
G10  21590286.490 1 113457720.713 1      1748.738          46.000    21590295.962 1  88408652.210 2      1362.639          39.000  
G18  20489145.103 1 107671182.667 1     -3318.323          45.000    20489153.026 1  83899653.598 2     -2585.574          42.000  
G23  19671159.860 1 103372641.830 1       115.368          44.000    19671166.010 1  80550135.144 1        89.997          42.000  
G24  21298286.441 1 111923250.239 2     -4152.401          43.000    21298296.683 1  87212962.870 2     -3235.866          40.000  
G25  21535892.330 1 113171879.837 1      1647.888          45.000    21535904.762 1  88185928.218 2      1284.279          40.000  
G32  22844301.861 1 120047616.700 2       -34.717          41.000    22844311.151 4               6       -27.112          29.000  
R 1  22002914.561 2 117618190.250 3       595.867          38.000    22002927.595 4                       464.104          29.000  
R 8  20612066.946 1 110376683.394 1      -540.193          46.000    20612074.825 2  85848564.995 3      -420.316          36.000  
R10  19912338.590 2 106143970.844 3     -2903.931          38.000                                                                  
R11  19114781.567 1 102143595.331 1      1207.083          49.000    19114785.539 1  79445037.609 1       938.861          44.000  
R23  20722777.363 1 110852885.012 1     -3432.239          43.000                                                                  
R26 320530106.297 1               1      -582.153          45.000   320530116.107 1               2      -453.018          40.000  
E 9  24041483.583 1 126338844.650 2     -1533.074          40.000                                                                  
E11  23589264.564 2 123962434.343 2     -3701.219          40.000                                                                  
E24  24791122.418 1 130278227.417 1      1191.317          45.000                                                                  
E36  23378816.116 1 122856509.229 1     -1769.944          46.000                                                                  
C14  22634149.817 1 117861956.437 1       426.343          45.000    22634157.729 1  91138373.504 2       329.885          40.000  
C24  21162061.081 1 110196405.324 1       721.018          48.000                                                                  
> 2023  9 15 18 49 27.5970000  0 18                     
G10  21590219.949 1 113457370.940 1      1748.744          46.000    21590229.397 1  88408379.631 2      1363.005          39.000  
G18  20489271.436 1 107671846.294 1     -3318.219          45.000    20489279.311 1  83900170.719 2     -2585.695          42.000  
G23  19671155.439 1 103372618.798 1       115.025          44.000    19671161.583 1  80550117.186 1        89.967          42.000  
G24  21298444.501 1 111924080.764 2     -4152.824          43.000    21298454.688 1  87213610.016 2     -3235.508          40.000  
G25  21535829.610 1 113171550.264 1      1647.866          44.000    21535842.063 1  88185671.412 2      1284.100          40.000  
G32  22844303.174 1 120047623.645 2       -34.875          41.000    22844312.434 4               6       -27.332          29.000  
R 1  22002892.259 2 117618071.029 3       595.768          38.000    22002905.269 4               7       463.490          29.000  
R 8  20612087.104 1 110376791.418 1      -540.117          46.000    20612094.972 2  85848648.991 3      -420.263          36.000  
R10  19912447.600 2 106144551.703 3     -2904.047          38.000                                                                  
R11  19114736.497 1 102143353.954 1      1206.757          49.000    19114740.389 1  79444849.872 1       938.474          44.000  
R23  20722905.635 1 110853571.449 1     -3432.170          43.000                                                                  
R26 320530128.078 1               1      -582.180          45.000   320530137.960 1               2      -453.144          40.000  
E 9  24041541.888 1 126339151.293 2     -1533.119          40.000                                                                  
E11  23589405.349 2 123963174.528 2     -3700.816          40.000                                                                  
E24  24791077.015 1 130277989.132 1      1191.274          45.000                                                                  
E36  23378883.431 1 122856863.236 1     -1770.098          46.000                                                                  
C14  22634133.420 1 117861871.174 1       426.158          45.000    22634141.366 1  91138307.582 2       329.565          40.000  
C24  21162033.441 1 110196261.097 1       721.037          48.000                                                                  
> 2023  9 15 18 49 27.7970000  0 18                     
G10  21590153.431 1 113457021.187 1      1748.582          46.000    21590162.823 1  88408107.102 2      1362.724          39.000  
G18  20489397.715 1 107672509.978 1     -3318.601          45.000    20489405.626 1  83900687.855 2     -2585.672          42.000  
G23  19671151.043 1 103372595.774 1       114.933          44.000    19671157.246 1  80550099.264 2        89.612          42.000  
G24  21298602.551 1 111924911.296 2     -4152.947          43.000    21298612.722 1  87214257.178 2     -3235.725          40.000  
G25  21535766.926 1 113171220.714 1      1647.420          44.000    21535779.350 1  88185414.634 2      1283.643          40.000  
G32  22844304.492 1 120047630.601 2       -35.126          41.000    22844313.702 4               6       -27.020          29.000  
R 1  22002869.974 2 117617951.810 3       595.766          38.000    22002882.937 4               7       463.423          29.000  
R 8  20612107.252 1 110376899.444 1      -540.273          46.000    20612115.161 2  85848733.008 3      -420.250          36.000  
R10  19912556.516 2 106145132.585 3     -2904.633          38.000                                                                  
R11  19114691.307 1 102143112.612 1      1206.488          49.000    19114695.235 1  79444662.157 1       938.372          44.000  
R23  20723034.002 1 110854257.918 1     -3432.504          43.000                                                                  
R26 320530149.878 1               1      -582.260          45.000   320530159.808 1               2      -452.885          40.000  
E 9  24041600.224 1 126339457.933 2     -1533.322          40.000                                                                  
E11  23589546.257 2 123963914.763 2     -3701.038          40.000                                                                  
E24  24791031.746 1 130277750.863 1      1191.263          45.000                                                                  
E36  23378950.813 1 122857217.259 1     -1770.358          46.000                                                                  
C14  22634117.004 1 117861785.911 1       426.059          45.000    22634125.011 1  91138241.655 2       329.385          40.000  
C24  21162005.722 1 110196116.901 1       720.774          48.000                                                                  
> 2023  9 15 18 49 27.9970000  0 18                     
G10  21590086.849 1 113456671.433 1      1748.918          46.000    21590096.279 1  88407834.592 2      1362.603          38.000  
G18  20489524.034 1 107673173.689 1     -3318.513          45.000    20489531.951 1  83901205.046 2     -2585.920          42.000  
G23  19671146.645 1 103372572.787 1       115.047          44.000    19671152.857 1  80550081.348 2        89.396          42.000  
G24  21298760.629 1 111925741.857 2     -4153.051          43.000    21298770.778 1  87214904.363 2     -3235.954          40.000  
G25  21535704.207 1 113170891.170 1      1647.833          45.000    21535716.591 1  88185157.852 2      1283.671          40.000  
G32  22844305.820 1 120047637.550 2       -34.705          41.000    22844314.999 4               6       -27.460          29.000  
R 1  22002847.631 2 117617832.574 2       596.100          38.000    22002860.573 4               7       463.727          29.000  
R 8  20612127.417 1 110377007.484 1      -540.203          46.000    20612135.276 2  85848817.058 3      -420.169          36.000  
R10  19912665.510 2 106145713.519 3     -2904.565          38.000                                                                  
R11  19114646.126 1 102142871.295 1      1206.768          49.000    19114650.074 1  79444474.478 1       938.403          44.000  
R23  20723162.301 1 110854944.419 1     -3432.496          43.000                                                                  
R26 320530171.668 1               1      -582.176          45.000   320530181.642 1               2      -452.615          40.000  
E 9  24041658.619 1 126339764.585 2     -1533.303          40.000                                                                  
E11  23589687.233 1 123964655.014 2     -3701.073          40.000                                                                  
E24  24790986.371 1 130277512.617 1      1191.318          45.000                                                                  
E36  23379018.054 1 122857571.320 1     -1770.217          46.000                                                                  
C14  22634100.653 1 117861700.653 1       426.411          45.000    22634108.644 1  91138175.722 2       329.762          40.000  
C24  21161978.029 1 110195972.737 1       720.912          48.000                                                                  
> 2023  9 15 18 49 28.1970000  0 17                     
G10  21590020.308 1 113456321.678 1      1748.649          47.000    21590029.679 1  88407562.049 2      1362.537          38.000  
G18  20489650.344 1 107673837.380 1     -3318.564          46.000    20489658.240 1  83901722.205 2     -2586.005          42.000  
G23  19671142.293 1 103372549.796 1       114.774          44.000    19671148.492 1  80550063.431 2        89.501          42.000  
G24  21298918.662 1 111926572.381 2     -4152.681          43.000    21298928.814 1  87215551.546 2     -3236.027          40.000  
G25  21535641.523 1 113170561.626 1      1647.574          45.000    21535653.904 1  88184901.045 2      1283.812          40.000  
G32  22844307.110 1 120047644.497 2       -34.833          41.000    22844316.384 4               6       -26.837          29.000  
R 1  22002825.354 2 117617713.330 2       596.304          38.000    22002838.167 4                       463.442          29.000  
R 8  20612147.574 1 110377115.502 1      -540.310          46.000    20612155.416 2  85848901.074 3      -420.139          36.000  
R10  19912774.498 2 106146294.467 3     -2904.895          38.000                                                                  
R11  19114600.999 1 102142629.985 1      1206.625          49.000    19114604.876 1  79444286.798 1       938.352          44.000  
R23  20723290.654 1 110855630.917 1     -3432.466          43.000                                                                  
E 9  24041717.013 1 126340071.212 2     -1533.146          40.000                                                                  
E11  23589828.148 1 123965395.257 2     -3701.455          40.000                                                                  
E24  24790941.048 1 130277274.358 1      1191.110          45.000                                                                  
E36  23379085.504 1 122857925.377 1     -1770.465          46.000                                                                  
C14  22634084.233 1 117861615.386 1       426.188          45.000    22634092.261 1  91138109.794 2       329.477          40.000  
C24  21161950.326 1 110195828.569 1       720.668          48.000                                                                  
> 2023  9 15 18 49 28.3970000  0 17                     
G10  21589953.764 1 113455971.950 1      1748.635          47.000    21589963.076 1  88407289.531 2      1362.564          38.000  
G18  20489776.661 1 107674501.142 1     -3318.735          46.000    20489784.580 1  83902239.412 1     -2586.116          42.000  
G23  19671137.868 1 103372526.855 1       114.524          44.000    19671144.159 1  80550045.552 2        89.300          42.000  
G24  21299076.736 1 111927402.980 2     -4153.021          43.000    21299086.858 1  87216198.759 2     -3236.173          40.000  
G25  21535578.784 1 113170232.090 1      1647.531          45.000    21535591.207 1  88184644.275 2      1284.046          40.000  
G32  22844308.364 1 120047651.482 2       -34.869          41.000    22844317.665 4               6       -27.197          29.000  
R 1  22002803.033 2 117617594.113 3       596.267          38.000    22002815.874 4               7       463.397          29.000  
R 8  20612167.775 1 110377223.555 1      -540.293          46.000    20612175.520 2  85848985.090 3      -419.736          36.000  
R10  19912883.495 2 106146875.478 3     -2904.779          38.000                                                                  
R11  19114555.899 1 102142388.786 1      1206.074          49.000    19114559.734 1  79444099.177 1       938.198          44.000  
R23  20723419.078 1 110856317.477 1     -3432.763          43.000                                                                  
E 9  24041775.255 1 126340377.878 2     -1533.448          40.000                                                                  
E11  23589969.072 1 123966135.536 2     -3701.567          40.000                                                                  
E24  24790895.735 1 130277036.121 1      1191.057          45.000                                                                  
E36  23379152.767 1 122858279.492 1     -1770.682          46.000                                                                  
C14  22634067.793 1 117861530.144 1       426.134          45.000    22634075.896 1  91138043.892 2       329.158          40.000  
C24  21161922.654 1 110195684.448 1       720.535          48.000                                                                  
> 2023  9 15 18 49 28.5970000  0 17                     
G10  21589887.216 1 113455622.218 1      1748.785          47.000    21589896.506 1  88407017.004 2      1362.822          39.000  
G18  20489903.007 1 107675164.914 1     -3318.784          46.000    20489910.950 1  83902756.631 1     -2586.031          42.000  
G23  19671133.478 1 103372503.923 1       114.518          44.000    19671139.804 1  80550027.686 1        89.380          42.000  
G24  21299234.781 1 111928233.565 2     -4152.870          43.000    21299244.919 1  87216845.976 2     -3236.157          40.000  
G25  21535516.027 1 113169902.577 1      1647.793          44.000    21535528.520 1  88184387.518 2      1283.841          40.000  
G32  22844309.621 1 120047658.453 2       -34.686          41.000    22844318.972 4               6       -27.179          29.000  
R 1  22002780.751 2 117617474.857 3       596.681          38.000    22002793.540 4               7       463.586          29.000  
R 8  20612187.922 1 110377331.597 1      -540.129          46.000    20612195.668 2  85849069.132 3      -420.219          36.000  
R10  19912992.455 2 106147456.518 3     -2904.987          38.000                                                                  
R11  19114510.765 1 102142147.576 1      1206.016          49.000    19114514.565 1  79443911.575 1       938.094          44.000  
R23  20723547.470 1 110857004.047 1     -3432.916          43.000                                                                  
E 9  24041833.600 1 126340684.507 2     -1533.055          40.000                                                                  
E11  23590109.920 1 123966875.777 2     -3701.061          39.000                                                                  
E24  24790850.308 1 130276797.898 1      1191.190          45.000                                                                  
E36  23379220.202 1 122858633.608 1     -1770.594          46.000                                                                  
C14  22634051.411 1 117861444.896 1       426.424          45.000    22634059.551 1  91137977.944 2       329.884          40.000  
C24  21161894.933 1 110195540.342 1       720.697          48.000                                                                  
> 2023  9 15 18 49 28.7970000  0 17                     
G10  21589820.689 1 113455272.469 1      1748.530          46.000    21589829.958 1  88406744.468 2      1362.693          38.000  
G18  20490029.394 1 107675828.671 1     -3319.187          46.000    20490037.284 1  83903273.843 1     -2586.163          42.000  
G23  19671129.102 1 103372480.989 1       114.543          44.000    19671135.416 1  80550009.808 1        89.293          43.000  
G24  21299392.808 1 111929064.142 2     -4153.227          43.000    21299402.961 1  87217493.161 2     -3236.169          40.000  
G25  21535453.298 1 113169573.038 1      1647.705          44.000    21535465.821 1  88184130.741 2      1283.502          40.000  
G32  22844310.972 1 120047665.409 2       -34.790          41.000    22844320.303 4               6       -26.874          29.000  
R 1  22002758.461 2 117617355.607 3       596.287          38.000    22002771.214 4               7       463.743          29.000  
R 8  20612208.098 1 110377439.609 1      -540.133          46.000    20612215.876 2  85849153.152 3      -419.678          36.000  
R10  19913101.482 2 106148037.568 3     -2905.170          38.000                                                                  
R11  19114465.644 1 102141906.373 1      1205.867          49.000    19114469.419 1  79443723.976 1       937.925          44.000  
R23  20723675.832 1 110857690.592 1     -3433.022          43.000                                                                  
E 9  24041891.959 1 126340991.119 2     -1532.874          40.000                                                                  
E11  23590250.764 1 123967616.043 2     -3701.333          39.000                                                                  
E24  24790805.024 1 130276559.640 1      1191.066          45.000                                                                  
E36  23379287.631 1 122858987.730 1     -1770.845          46.000                                                                  
C14  22634035.037 1 117861359.631 1       426.127          45.000    22634043.155 1  91137912.026 2       329.589          40.000  
C24  21161867.290 1 110195396.241 1       720.376          48.000                                                                  
> 2023  9 15 18 49 28.9970000  0 17                     
G10  21589754.105 1 113454922.705 1      1748.853          46.000    21589763.401 1  88406471.954 2      1362.616          38.000  
G18  20490155.707 1 107676492.435 1     -3318.836          46.000    20490163.592 1  83903791.064 1     -2585.884          42.000  
G23  19671124.715 1 103372458.060 1       114.574          44.000    19671131.059 1  80549991.942 1        89.349          43.000  
G24  21299550.841 1 111929894.714 2     -4152.965          43.000    21299561.034 1  87218140.364 2     -3236.010          40.000  
G25  21535390.562 1 113169243.523 1      1647.527          44.000    21535403.113 1  88183873.966 2      1283.802          40.000  
G32  22844312.253 1 120047672.371 2       -34.796          41.000    22844321.633 2               6       -27.374          29.000  
R 1  22002736.170 2 117617236.335 3       596.483          38.000    22002748.804 4               6       463.899          29.000  
R 8  20612228.255 1 110377547.620 1      -539.838          46.000    20612236.093 2  85849237.193 3      -420.413          36.000  
R10  19913210.468 2 106148618.647 3     -2905.560          37.000                                                                  
R11  19114420.533 1 102141665.198 1      1205.915          49.000    19114424.296 1  79443536.393 1       937.875          44.000  
R23  20723804.187 1 110858377.162 1     -3432.845          43.000                                                                  
E 9  24041950.343 1 126341297.759 2     -1533.311          40.000                                                                  
E11  23590391.587 1 123968356.266 2     -3700.621          39.000                                                                  
E24  24790759.674 1 130276321.386 1      1191.305          45.000                                                                  
E36  23379355.129 1 122859341.847 1     -1770.665          46.000                                                                  
C14  22634018.697 1 117861274.345 1       426.521          45.000    22634026.772 1  91137846.086 2       329.737          40.000  
C24  21161839.615 1 110195252.149 1       720.386          48.000                                                                  
> 2023  9 15 18 49 29.1970000  0 17                     
G10  21589687.597 1 113454572.955 1      1748.823          46.000    21589696.854 1  88406199.406 2      1362.909          38.000  
G18  20490282.078 1 107677156.223 1     -3318.885          45.000    20490289.930 1  83904308.321 1     -2586.406          42.000  
G23  19671120.330 1 103372435.141 1       114.643          44.000    19671126.726 1  80549974.094 2        89.103          43.000  
G24  21299708.870 1 111930725.287 2     -4152.889          43.000    21299719.130 1  87218787.590 2     -3236.302          40.000  
G25  21535327.883 1 113168913.992 1      1647.491          44.000    21535340.394 1  88183617.191 2      1283.849          40.000  
G32  22844313.556 1 120047679.306 2       -34.503          41.000    22844322.918 2               6       -26.746          29.000  
R 1  22002713.835 2 117617117.062 2       596.470          38.000    22002726.489 4               6       464.048          29.000  
R 8  20612248.425 1 110377655.633 1      -539.963          46.000    20612256.185 2  85849321.179 3      -420.499          36.000  
R10  19913319.475 2 106149199.748 3     -2905.457          37.000                                                                  
R11  19114375.447 1 102141424.038 1      1205.816          49.000    19114379.145 1  79443348.828 1       937.918          44.000  
R23  20723932.543 1 110859063.749 1     -3432.831          43.000                                                                  
E 9  24042008.659 1 126341604.336 2     -1532.866          40.000                                                                  
E11  23590532.347 1 123969096.562 3     -3701.272          39.000                                                                  
E24  24790714.328 1 130276083.132 1      1191.388          45.000                                                                  
E36  23379422.515 1 122859695.984 1     -1770.604          46.000                                                                  
C14  22634002.288 1 117861189.063 1       426.607          45.000    22634010.360 1  91137780.134 2       329.896          39.000  
C24  21161812.027 1 110195108.060 1       720.464          47.000                                                                  
> 2023  9 15 18 49 29.3970000  0 17                     
G10  21589621.016 1 113454223.234 1      1748.597          46.000    21589630.321 1  88405926.884 2      1362.909          38.000  
G18  20490408.406 1 107677820.054 1     -3319.198          45.000    20490416.218 1  83904825.573 1     -2586.392          42.000  
G23  19671115.975 1 103372412.271 1       114.293          44.000    19671122.367 1  80549956.259 2        89.079          43.000  
G24  21299866.890 1 111931555.911 2     -4153.169          43.000    21299877.195 1  87219434.802 2     -3236.194          40.000  
G25  21535265.207 1 113168584.484 1      1647.715          44.000    21535277.632 1  88183360.434 2      1283.826          40.000  
G32  22844314.835 1 120047686.284 2       -34.644          41.000    22844324.273 2               6       -27.191          29.000  
R 1  22002691.505 2 117616997.797 3       596.484          38.000    22002704.201 4               6       463.687          29.000  
R 8  20612268.550 1 110377763.661 1      -539.979          46.000    20612276.396 2  85849405.182 3      -419.619          36.000  
R10  19913428.499 2 106149780.910 3     -2905.865          37.000                                                                  
R11  19114330.388 1 102141182.937 1      1205.500          49.000    19114334.011 1  79443161.310 1       937.571          44.000  
R23  20724060.857 1 110859750.383 1     -3433.084          43.000                                                                  
E 9  24042066.965 1 126341910.982 2     -1533.087          40.000    24042084.196 9                     -1177.091          31.000  
E11  23590673.264 1 123969836.859 3     -3701.715          39.000                                                                  
E24  24790669.008 1 130275844.914 1      1191.149          45.000                                                                  
E36  23379490.053 1 122860050.171 1     -1770.981          46.000                                                                  
C14  22633985.898 1 117861103.799 1       426.466          45.000    22633993.968 1  91137714.206 2       329.557          39.000  
C24  21161784.358 1 110194964.020 1       720.210          47.000                                                                  
> 2023  9 15 18 49 29.5970000  0 17                     
G10  21589554.424 1 113453873.486 1      1748.724          46.000    21589563.696 1  88405654.350 2      1363.072          38.000  
G18  20490534.726 1 107678483.882 1     -3319.235          45.000    20490542.552 1  83905342.833 2     -2586.167          42.000  
G23  19671111.652 1 103372389.384 1       114.441          44.000    19671118.018 1  80549938.431 1        89.105          43.000  
G24  21300024.936 1 111932386.509 2     -4153.095          43.000    21300035.204 1  87220082.029 2     -3236.199          40.000  
G25  21535202.498 1 113168254.977 1      1647.566          44.000    21535214.903 1  88183103.669 2      1283.867          40.000  
G32  22844316.110 1 120047693.241 2       -34.833          41.000    22844325.656 4               7       -27.197          29.000  
R 1  22002669.245 2 117616878.521 2       596.355          39.000    22002681.877 4               6       464.063          29.000  
R 8  20612288.731 1 110377871.666 1      -539.958          46.000    20612296.555 2  85849489.184 3      -419.683          36.000  
R10  19913537.507 2 106150362.090 3     -2905.963          37.000                                                                  
R11  19114285.263 1 102140941.842 1      1205.122          50.000    19114288.964 1  79442973.782 1       937.597          44.000  
R23  20724189.121 1 110860437.015 1     -3433.283          43.000                                                                  
E 9  24042125.343 1 126342217.593 2     -1533.061          40.000    24042142.245 9                     -1177.376          32.000  
E11  23590814.237 1 123970577.115 3     -3701.338          39.000                                                                  
E24  24790623.761 1 130275606.668 1      1191.260          45.000                                                                  
E36  23379557.435 1 122860404.349 1     -1770.916          46.000                                                                  
C14  22633969.523 1 117861018.514 1       426.496          45.000    22633977.577 1  91137648.255 2       329.946          40.000  
C24  21161756.657 1 110194819.971 1       720.161          47.000                                                                  
> 2023  9 15 18 49 29.7970000  0 17                     
G10  21589487.900 1 113453523.745 1      1748.540          46.000    21589497.170 1  88405381.844 2      1362.682          38.000  
G18  20490661.076 1 107679147.716 1     -3319.208          45.000    20490668.882 1  83905860.112 2     -2586.423          42.000  
G23  19671107.323 1 103372366.526 1       114.208          44.000    19671113.646 1  80549920.614 2        88.927          43.000  
G24  21300182.963 1 111933217.113 2     -4152.922          43.000    21300193.246 1  87220729.246 2     -3235.856          40.000  
G25  21535139.772 1 113167925.477 1      1647.420          44.000    21535152.159 1  88182846.919 2      1283.687          40.000  
G32  22844317.423 1 120047700.186 2       -34.857          41.000    22844326.957 4                       -26.807          29.000  
R 1  22002646.938 2 117616759.219 2       596.247          39.000    22002659.437 4               6       464.036          29.000  
R 8  20612308.868 1 110377979.669 1      -540.093          46.000    20612316.719 2  85849573.186 3      -419.479          36.000  
R10  19913646.532 2 106150943.279 2     -2906.177          37.000                                                                  
R11  19114240.119 1 102140700.780 1      1205.159          50.000    19114243.834 1  79442786.289 1       937.382          44.000  
R23  20724317.507 1 110861123.648 2     -3433.268          43.000                                                                  
E 9  24042183.580 1 126342524.187 2     -1533.088          40.000    24042200.187 9                     -1173.206          32.000  
E11  23590955.118 1 123971317.392 3     -3701.309          39.000                                                                  
E24  24790578.487 1 130275368.444 1      1190.991          45.000                                                                  
E36  23379624.855 1 122860758.543 1     -1771.128          46.000                                                                  
C14  22633953.173 1 117860933.228 1       426.366          45.000    22633961.175 1  91137582.306 2       329.754          40.000  
C24  21161729.023 1 110194675.943 1       720.076          47.000                                                                  
> 2023  9 15 18 49 29.9970000  0 17                     
G10  21589421.353 1 113453173.976 1      1748.650          46.000    21589430.603 1  88405109.289 2      1362.887          38.000  
G18  20490787.399 1 107679811.554 1     -3319.336          45.000    20490795.211 1  83906377.398 2     -2586.755          43.000  
G23  19671102.969 1 103372343.650 1       114.201          44.000    19671109.277 1  80549902.786 1        88.932          43.000  
G24  21300340.977 1 111934047.717 2     -4153.221          43.000    21300351.294 1  87221376.495 2     -3236.467          40.000  
G25  21535077.077 1 113167595.948 1      1647.505          44.000    21535089.473 1  88182590.142 2      1283.764          40.000  
G32  22844318.746 1 120047707.122 2       -34.949          41.000    22844328.287 2                       -26.733          29.000  
R 1  22002624.608 2 117616639.880 2       596.624          38.000    22002637.114 4               6       463.926          29.000  
R 8  20612328.966 1 110378087.638 1      -539.990          46.000    20612336.908 2  85849657.179 3      -419.984          36.000  
R10  19913755.569 2 106151524.477 3     -2905.963          38.000                                                                  
R11  19114195.020 1 102140459.721 1      1205.001          50.000    19114198.700 1  79442598.798 1       937.209          44.000  
R23  20724445.879 1 110861810.285 1     -3433.358          43.000                                                                  
E 9  24042241.889 1 126342830.759 2     -1533.064          40.000    24042257.649 9               7     -1175.669          32.000  
E11  23591095.959 1 123972057.650 2     -3701.332          39.000                                                                  
E24  24790533.134 1 130275130.179 1      1191.200          45.000                                                                  
E36  23379692.368 1 122861112.729 1     -1771.098          46.000                                                                  
C14  22633936.821 1 117860847.907 1       426.450          45.000    22633944.792 1  91137516.350 2       329.561          40.000  
C24  21161701.313 1 110194531.914 1       719.908          47.000                                                                  
> 2023  9 15 18 49 30.1970000  0 17                     
G10  21589354.789 1 113452824.225 1      1748.721          46.000    21589364.079 1  88404836.776 2      1362.741          38.000  
G18  20490913.777 1 107680475.417 1     -3319.565          45.000    20490921.590 1  83906894.682 2     -2586.602          42.000  
G23  19671098.636 1 103372320.796 1       114.109          44.000    19671104.922 1  80549884.981 2        88.846          43.000  
G24  21300499.030 1 111934878.321 1     -4153.033          43.000    21300509.374 1  87222023.715 2     -3236.484          40.000  
G25  21535014.360 1 113167266.443 1      1647.487          43.000    21535026.799 1  88182333.381 2      1283.923          40.000  
G32  22844320.041 1 120047714.056 2       -34.735          41.000    22844329.642 2               7       -26.971          29.000  
R 1  22002602.238 2 117616520.554 2       596.490          38.000    22002614.735 4               6       464.222          29.000  
R 8  20612349.109 1 110378195.622 1      -539.901          46.000    20612357.089 2  85849741.163 3      -420.000          36.000  
R10  19913864.610 2 106152105.742 3     -2906.519          38.000                                                                  
R11  19114149.986 1 102140218.692 1      1204.898          50.000    19114153.584 1  79442411.324 1       937.309          44.000  
R23  20724574.254 1 110862496.936 1     -3433.410          43.000                                                                  
E 9  24042300.286 1 126343137.326 2     -1532.975          40.000    24042316.136 9               7     -1174.973          32.000  
E11  23591236.868 1 123972797.913 3     -3701.328          39.000                                                                  
E24  24790487.885 1 130274891.933 1      1191.208          45.000                                                                  
E36  23379759.627 1 122861466.932 1     -1771.069          46.000                                                                  
C14  22633920.451 1 117860762.600 1       426.389          45.000    22633928.417 1  91137450.377 2       329.753          40.000  
C24  21161673.547 1 110194387.898 1       719.930          47.000                                                                  
> 2023  9 15 18 49 30.3970000  0 17                     
G10  21589288.257 1 113452474.502 1      1748.509          46.000    21589297.510 1  88404564.246 2      1362.783          38.000  
G18  20491040.094 1 107681139.309 1     -3319.485          45.000    20491047.916 1  83907412.008 2     -2586.655          42.000  
G23  19671094.277 1 103372297.985 1       114.001          44.000    19671100.578 1  80549867.188 1        89.101          43.000  
G24  21300657.117 1 111935708.981 2     -4153.213          43.000    21300667.466 1  87222670.960 2     -3236.145          40.000  
G25  21534951.621 1 113166936.943 1      1647.437          43.000    21534964.117 1  88182076.633 2      1283.806          40.000  
G32  22844321.377 1 120047721.012 2       -34.784          41.000    22844331.011 2               7       -27.130          28.000  
R 1  22002579.911 2 117616401.202 2       596.897          38.000    22002592.507 4               7       464.513          29.000  
R 8  20612369.277 1 110378303.620 1      -539.861          46.000    20612377.226 2  85849825.174 3      -420.009          36.000  
R10  19913973.621 2 106152687.025 3     -2906.268          38.000                                                                  
R11  19114104.908 1 102139977.712 1      1204.950          50.000    19114108.517 1  79442223.894 1       937.210          44.000  
R23  20724702.603 1 110863183.646 1     -3433.417          43.000                                                                  
E 9  24042358.514 1 126343443.928 2     -1533.020          40.000    24042373.567 9               7     -1174.446          32.000  
E11  23591377.715 1 123973538.238 3     -3701.625          39.000                                                                  
E24  24790442.647 1 130274653.716 1      1191.012          45.000                                                                  
E36  23379826.968 1 122861821.187 1     -1771.260          46.000                                                                  
C14  22633904.101 1 117860677.306 1       426.490          45.000    22633912.023 1  91137384.424 2       329.932          40.000  
C24  21161645.888 1 110194243.918 1       720.052          47.000                                                                  
> 2023  9 15 18 49 30.5970000  0 17                     
G10  21589221.732 1 113452124.771 1      1748.529          46.000    21589230.919 1  88404291.771 3      1362.207          38.000  
G18  20491166.440 1 107681803.231 1     -3319.663          45.000    20491174.321 1  83907929.338 1     -2586.573          42.000  
G23  19671089.955 1 103372275.183 1       113.908          44.000    19671096.241 1  80549849.431 1        88.898          43.000  
G24  21300815.198 1 111936539.632 2     -4153.400          43.000    21300825.512 1  87223318.231 2     -3236.512          40.000  
G25  21534888.875 1 113166607.471 1      1647.449          43.000    21534901.384 1  88181819.902 2      1283.605          40.000  
G32  22844322.746 1 120047727.997 2       -35.046          41.000    22844332.300 2               7       -27.063          29.000  
R 1  22002557.605 2 117616281.906 2       596.848          38.000    22002570.077 4               7       464.070          29.000  
R 8  20612389.472 1 110378411.634 1      -540.184          46.000    20612397.466 2  85849909.140 3      -419.292          36.000  
R10  19914082.689 2 106153268.359 3     -2906.677          38.000                                                                  
R11  19114059.859 1 102139736.776 1      1204.612          50.000    19114063.457 1  79442036.495 1       936.987          44.000  
R23  20724831.032 1 110863870.381 1     -3433.856          43.000                                                                  
E 9  24042416.824 1 126343750.519 2     -1532.938          40.000    24042431.769 8               6     -1174.726          31.000  
E11  23591518.583 1 123974278.555 3     -3701.891          39.000                                                                  
E24  24790397.223 1 130274415.493 1      1191.112          45.000                                                                  
E36  23379894.344 1 122862175.473 1     -1771.517          46.000                                                                  
C14  22633887.737 1 117860592.023 1       426.397          45.000    22633895.648 1  91137318.477 2       329.762          39.000  
C24  21161618.237 1 110194099.972 1       719.778          48.000                                                                  
> 2023  9 15 18 49 30.7970000  0 17                     
G10  21589155.183 1 113451775.057 1      1748.658          46.000    21589164.309 1  88404019.232 3      1362.818          38.000  
G18  20491292.815 1 107682467.175 1     -3319.542          45.000    20491300.638 1  83908446.700 2     -2586.653          42.000  
G23  19671085.617 1 103372252.416 1       114.040          44.000    19671091.917 1  80549831.694 1        88.727          43.000  
G24  21300973.238 1 111937370.306 2     -4153.224          43.000    21300983.531 1  87223965.504 2     -3236.450          40.000  
G25  21534826.148 1 113166278.031 1      1647.206          43.000    21534838.698 1  88181563.196 2      1283.723          40.000  
G32  22844324.098 1 120047734.971 2       -34.924          41.000    22844333.607 2               7       -26.959          29.000  
R 1  22002535.291 2 117616162.606 2       596.211          38.000    22002547.671 4               7       463.863          29.000  
R 8  20612409.650 1 110378519.643 1      -539.934          46.000    20612417.651 2  85849993.189 3      -419.940          36.000  
R10  19914191.750 2 106153849.735 3     -2906.585          38.000                                                                  
R11  19114014.777 1 102139495.867 1      1204.658          49.000    19114018.376 1  79441849.128 1       936.865          44.000  
R23  20724959.438 1 110864557.136 1     -3433.806          43.000                                                                  
E 9  24042475.177 1 126344057.118 2     -1532.845          40.000    24042491.186 8  96809151.47015     -1174.330          32.000  
E11  23591659.468 1 123975018.859 3     -3701.416          39.000                                                                  
E24  24790351.767 1 130274177.293 1      1191.035          45.000                                                                  
E36  23379961.672 1 122862529.761 1     -1771.333          46.000                                                                  
C14  22633871.413 1 117860506.735 1       426.570          45.000    22633879.247 1  91137252.535 2       329.508          39.000  
C24  21161590.559 1 110193956.046 1       719.739          47.000                                                                  
> 2023  9 15 18 49 30.9970000  0 17                     
G10  21589088.584 1 113451425.347 1      1748.650          46.000    21589097.751 1  88403746.762 3      1362.409          38.000  
G18  20491419.130 1 107683131.146 1     -3320.056          45.000    20491426.982 1  83908964.081 2     -2586.902          42.000  
G23  19671081.295 1 103372229.663 1       113.683          44.000    19671087.614 1  80549813.960 1        88.530          43.000  
G24  21301131.289 1 111938200.994 1     -4153.572          43.000    21301141.577 1  87224612.783 2     -3236.385          40.000  
G25  21534763.427 1 113165948.567 1      1647.156          43.000    21534775.972 1  88181306.474 2      1283.448          40.000  
G32  22844325.387 1 120047741.939 2       -34.686          41.000    22844334.930 2               7       -27.161          29.000  
R 1  22002512.962 2 117616043.254 2       596.747          38.000    22002525.263 4               7       463.996          29.000  
R 8  20612429.853 1 110378627.657 1      -539.973          46.000    20612437.858 2  85850077.184 3      -419.929          36.000  
R10  19914300.802 2 106154431.166 3     -2907.477          38.000                                                                  
R11  19113969.680 1 102139254.985 1      1204.301          50.000    19113973.304 1  79441661.775 1       936.554          44.000  
R23  20725087.820 1 110865243.909 1     -3433.959          43.000                                                                  
E 9  24042533.564 1 126344363.715 2     -1533.151          40.000    24042549.625 8  96809386.405 5     -1174.436          32.000  
E11  23591800.350 1 123975759.195 3     -3701.632          39.000                                                                  
E24  24790306.516 1 130273939.090 1      1190.928          45.000                                                                  
E36  23380029.002 1 122862884.083 1     -1771.734          46.000                                                                  
C14  22633855.006 1 117860421.452 1       426.398          45.000    22633862.864 1  91137186.570 2       329.778          39.000  
C24  21161562.959 1 110193812.135 1       719.555          47.000                                                                  
> 2023  9 15 18 49 31.1970000  0 17                     
G10  21589022.051 1 113451075.622 1      1748.523          46.000    21589031.141 1  88403474.224 3      1362.898          38.000  
G18  20491545.483 1 107683795.101 1     -3319.895          45.000    20491553.348 1  83909481.448 2     -2586.697          42.000  
G23  19671076.980 1 103372206.887 1       113.879          44.000    19671083.276 1  80549796.220 2        88.566          43.000  
G24  21301289.353 1 111939031.660 1     -4153.508          42.000    21301299.652 1  87225260.055 2     -3236.239          40.000  
G25  21534700.698 1 113165619.090 1      1647.356          43.000    21534713.288 1  88181049.745 2      1283.517          40.000  
G32  22844326.680 1 120047748.902 2       -34.839          41.000    22844336.221 2               7       -27.307          29.000  
R 1  22002490.630 2 117615923.891 3       596.808          38.000    22002502.940 4               7       464.447          29.000  
R 8  20612450.025 1 110378735.637 1      -539.921          46.000    20612458.007 2  85850161.178 3      -420.112          36.000  
R10  19914409.852 2 106155012.552 2     -2907.361          38.000                                                                  
R11  19113924.645 1 102139014.101 1      1204.287          50.000    19113928.245 1  79441474.419 1       936.677          44.000  
R23  20725216.203 1 110865930.675 1     -3433.980          43.000                                                                  
E 9  24042591.818 1 126344670.271 2     -1532.652          40.000    24042607.698 8  96809621.311 5     -1174.222          32.000  
E11  23591941.260 1 123976499.504 3     -3701.695          39.000                                                                  
E24  24790261.230 1 130273700.867 1      1191.081          45.000                                                                  
E36  23380096.287 1 122863238.386 1     -1771.575          46.000                                                                  
C14  22633838.559 1 117860336.139 1       426.655          45.000    22633846.449 1  91137120.615 2       329.854          39.000  
C24  21161535.297 1 110193668.218 1       719.566          47.000                                                                  
> 2023  9 15 18 49 31.3970000  0 17                     
G10  21588955.514 1 113450725.912 1      1748.279          46.000    21588964.574 1  88403201.738 3      1362.282          38.000  
G18  20491671.863 1 107684459.100 1     -3320.252          45.000    20491679.724 1  83909998.847 2     -2587.184          42.000  
G23  19671072.676 1 103372184.158 1       113.604          44.000    19671078.964 1  80549778.513 1        88.359          43.000  
G24  21301447.412 1 111939862.353 1     -4153.538          42.000    21301457.753 1  87225907.352 2     -3236.572          40.000  
G25  21534637.987 1 113165289.657 1      1646.825          43.000    21534650.602 1  88180793.022 2      1283.392          40.000  
G32  22844328.007 1 120047755.865 2       -35.223          41.000    22844337.555 2               7       -27.759          29.000  
R 1  22002468.279 2 117615804.546 3       596.488          37.000    22002480.553 4               7       463.976          29.000  
R 8  20612470.240 1 110378843.639 1      -540.178          46.000    20612478.197 2  85850245.154 3      -419.901          36.000  
R10  19914518.939 2 106155594.008 2     -2907.416          38.000                                                                  
R11  19113879.547 1 102138773.274 1      1203.789          50.000    19113883.214 1  79441287.107 1       936.446          44.000  
R23  20725344.600 1 110866617.481 1     -3434.351          43.000                                                                  
E 9  24042650.051 1 126344976.877 2     -1533.164          40.000    24042665.788 4  96809856.241 5     -1174.636          32.000  
E11  23592082.156 1 123977239.827 2     -3701.794          39.000                                                                  
E24  24790215.926 1 130273462.668 1      1190.837          45.000                                                                  
E36  23380163.636 1 122863592.738 1     -1771.928          46.000                                                                  
C14  22633822.227 1 117860250.844 1       426.267          45.000    22633830.026 1  91137054.651 2       329.556          39.000  
C24  21161507.642 1 110193524.341 1       719.115          47.000                                                                  
> 2023  9 15 18 49 31.5970000  0 17                     
G10  21588888.999 1 113450376.197 1      1748.608          46.000    21588897.999 1  88402929.216 3      1362.941          38.000  
G18  20491798.237 1 107685123.104 1     -3320.149          45.000    20491806.136 1  83910516.257 1     -2586.974          42.000  
G23  19671068.320 1 103372161.448 1       113.494          44.000    19671074.600 1  80549760.810 1        88.408          43.000  
G24  21301605.507 1 111940693.068 1     -4153.589          42.000    21301615.864 1  87226554.654 2     -3236.564          40.000  
G25  21534575.302 1 113164960.199 1      1647.061          44.000    21534587.860 1  88180536.308 2      1283.607          40.000  
G32  22844329.299 1 120047762.836 2       -34.717          41.000    22844338.871 2               7       -26.697          29.000  
R 1  22002445.893 2 117615685.172 3       597.152          37.000    22002458.174 4               7       464.549          29.000  
R 8  20612490.339 1 110378951.637 1      -539.858          46.000    20612498.392 2  85850329.166 3      -419.685          36.000  
R10  19914628.033 2 106156175.509 3     -2907.410          38.000                                                                  
R11  19113834.570 1 102138532.467 1      1203.977          49.000    19113838.153 1  79441099.819 1       936.439          44.000  
R23  20725473.027 1 110867304.302 1     -3434.107          43.000                                                                  
E 9  24042708.293 1 126345283.448 2     -1532.715          40.000    24042723.596 4  96810091.158 5     -1174.866          32.000  
E11  23592223.083 1 123977980.178 3     -3701.778          39.000                                                                  
E24  24790170.569 1 130273224.475 1      1190.973          45.000                                                                  
E36  23380231.028 1 122863947.101 1     -1771.914          46.000                                                                  
C14  22633805.881 1 117860165.541 1       426.612          45.000    22633813.662 1  91136988.705 2       329.698          39.000  
C24  21161480.005 1 110193380.470 1       719.234          47.000                                                                  
> 2023  9 15 18 49 31.7970000  0 17                     
G10  21588822.456 1 113450026.512 1      1748.508          46.000    21588831.443 1  88402656.751 3      1362.400          38.000  
G18  20491924.598 1 107685787.151 1     -3320.312          45.000    20491932.516 1  83911033.698 1     -2587.334          42.000  
G23  19671064.026 1 103372138.763 1       113.347          44.000    19671070.302 1  80549743.131 1        88.379          43.000  
G24  21301763.597 1 111941523.789 1     -4153.592          43.000    21301773.886 1  87227201.985 2     -3236.813          40.000  
G25  21534512.599 1 113164630.776 1      1647.205          44.000    21534525.123 1  88180279.614 2      1283.541          40.000  
G32  22844330.648 1 120047769.841 2       -35.144          41.000    22844340.183 2               7       -27.502          29.000  
R 1  22002423.592 2 117615565.844 3       596.713          37.000    22002435.881 4               7       463.973          29.000  
R 8  20612510.504 1 110379059.658 1      -540.081          46.000    20612518.564 2  85850413.160 3      -419.614          36.000  
R10  19914737.145 2 106156757.049 3     -2907.623          38.000                                                                  
R11  19113789.544 1 102138291.703 1      1203.758          49.000    19113793.125 1  79440912.560 1       936.252          44.000  
R23  20725601.440 1 110867991.158 1     -3434.225          43.000                                                                  
E 9  24042766.595 1 126345590.047 2     -1533.067          40.000    24042781.533 4               6     -1174.200          32.000  
E11  23592363.878 1 123978720.530 3     -3701.960          39.000                                                                  
E24  24790125.184 1 130272986.288 1      1190.857          45.000                                                                  
E36  23380298.489 1 122864301.502 1     -1772.047          46.000                                                                  
C14  22633789.481 1 117860080.249 1       426.422          45.000    22633797.303 1  91136922.746 2       329.841          39.000  
C24  21161452.349 1 110193236.635 1       719.124          47.000                                                                  
> 2023  9 15 18 49 31.9970000  0 17                     
G10  21588755.946 1 113449676.823 1      1748.526          46.000    21588764.865 1  88402384.272 2      1362.303          38.000  
G18  20492050.919 1 107686451.203 1     -3320.242          45.000    20492058.866 1  83911551.141 2     -2587.346          42.000  
G23  19671059.705 1 103372116.083 1       113.446          44.000    19671065.946 1  80549725.463 1        88.392          43.000  
G24  21301921.671 1 111942354.519 1     -4153.507          43.000    21301931.966 1  87227849.309 2     -3236.967          40.000  
G25  21534449.913 1 113164301.356 1      1647.121          44.000    21534462.449 1  88180022.925 2      1283.537          40.000  
G32  22844331.947 1 120047776.813 2       -34.900          41.000    22844341.444 2               7       -27.625          29.000  
R 1  22002401.258 2 117615446.492 3       596.579          37.000    22002413.496 4                       463.359          29.000  
R 8  20612530.712 1 110379167.672 1      -539.999          46.000    20612538.730 2  85850497.202 3      -420.474          36.000  
R10  19914846.213 2 106157338.613 3     -2907.739          38.000                                                                  
R11  19113744.536 1 102138050.972 1      1203.713          49.000    19113748.137 1  79440725.324 1       936.150          44.000  
R23  20725729.808 1 110868678.022 2     -3434.102          43.000                                                                  
E 9  24042824.873 1 126345896.624 2     -1532.835          40.000    24042839.910 4               6     -1174.465          32.000  
E11  23592504.710 1 123979460.886 3     -3701.673          39.000                                                                  
E24  24790079.814 1 130272748.120 1      1190.909          45.000                                                                  
E36  23380365.900 1 122864655.915 1     -1772.111          46.000                                                                  
C14  22633773.123 1 117859994.968 1       426.373          45.000    22633780.931 1  91136856.783 2       330.168          39.000  
C24  21161424.750 1 110193092.815 1       719.124          47.000                                                                  
> 2023  9 15 18 49 32.1970000  0 17                     
G10  21588689.372 1 113449327.144 1      1748.401          46.000    21588698.315 1  88402111.805 2      1362.317          38.000  
G18  20492177.240 1 107687115.269 1     -3320.198          45.000    20492185.211 1  83912068.604 2     -2587.396          42.000  
G23  19671055.410 1 103372093.429 1       113.350          44.000    19671061.644 1  80549707.798 1        88.391          43.000  
G24  21302079.741 1 111943185.258 1     -4153.595          43.000    21302090.121 1  87228496.610 2     -3236.465          40.000  
G25  21534387.253 1 113163971.944 1      1647.116          44.000    21534399.826 1  88179766.256 2      1283.212          40.000  
G32  22844333.321 1 120047783.795 2       -34.644          41.000    22844342.796 2                       -27.112          28.000  
R 1  22002378.913 2 117615327.098 3       597.542          37.000    22002391.022 4               7       465.483          29.000  
R 8  20612550.872 1 110379275.695 1      -540.182          46.000    20612558.923 2  85850581.177 3      -419.626          36.000  
R10  19914955.274 2 106157920.226 2     -2908.160          38.000                                                                  
R11  19113699.451 1 102137810.272 1      1203.420          49.000    19113703.121 1  79440538.121 1       935.891          44.000  
R23  20725858.251 1 110869364.918 2     -3434.520          43.000                                                                  
E 9  24042883.285 1 126346203.217 2     -1533.105          40.000    24042898.297 4  96810795.883 5     -1174.584          32.000  
E11  23592645.654 1 123980201.263 2     -3701.979          39.000                                                                  
E24  24790034.438 1 130272509.946 1      1190.806          45.000                                                                  
E36  23380433.278 1 122865010.334 1     -1772.142          46.000                                                                  
C14  22633756.725 1 117859909.666 1       426.514          45.000    22633764.566 1  91136790.845 2       329.717          39.000  
C24  21161397.077 1 110192949.017 1       718.977          47.000                                                                  
> 2023  9 15 18 49 32.3970000  0 17                     
G10  21588622.801 1 113448977.446 1      1748.232          46.000    21588631.742 1  88401839.300 2      1362.046          38.000  
G18  20492303.652 1 107687779.358 1     -3320.557          46.000    20492311.606 1  83912586.059 2     -2587.333          42.000  
G23  19671051.096 1 103372070.783 1       113.158          44.000    19671057.343 1  80549690.149 1        88.195          43.000  
G24  21302237.802 1 111944015.988 1     -4153.598          43.000    21302248.195 1  87229143.950 2     -3236.666          40.000  
G25  21534324.551 1 113163642.517 1      1646.933          44.000    21534337.155 1  88179509.557 2      1283.231          40.000  
G32  22844334.670 1 120047790.778 2       -34.979          41.000    22844344.141 2               7       -27.100          28.000  
R 1  22002356.544 2 117615207.712 3       597.200          37.000    22002368.623 4                       464.682          29.000  
R 8  20612571.026 1 110379383.685 1      -540.164          46.000    20612579.121 2  85850665.192 3      -419.961          36.000  
R10  19915064.409 2 106158501.831 2     -2908.435          38.000                                                                  
R11  19113654.366 1 102137569.576 1      1203.327          50.000    19113658.071 1  79440350.910 1       935.938          44.000  
R23  20725986.652 1 110870051.803 2     -3434.627          43.000                                                                  
E 9  24042941.733 1 126346509.778 2     -1532.895          40.000    24042957.154 2  96811030.802 5     -1174.560          32.000  
E11  23592786.512 1 123980941.615 3     -3701.792          39.000                                                                  
E24  24789989.196 1 130272271.769 1      1190.841          45.000                                                                  
E36  23380500.768 1 122865364.774 1     -1772.349          46.000                                                                  
C14  22633740.351 1 117859824.360 1       426.402          45.000    22633748.179 1  91136724.882 2       329.581          39.000  
C24  21161369.429 1 110192805.214 1       718.917          47.000                                                                  
> 2023  9 15 18 49 32.5970000  0 17                     
G10  21588556.254 1 113448627.753 1      1748.468          46.000    21588565.185 1  88401566.809 2      1362.469          38.000  
G18  20492430.030 1 107688443.469 1     -3320.580          46.000    20492438.001 1  83913103.544 2     -2587.286          42.000  
G23  19671046.826 1 103372048.151 1       112.961          44.000    19671053.027 1  80549672.515 1        88.313          43.000  
G24  21302395.925 1 111944846.764 1     -4153.970          43.000    21302406.282 1  87229791.301 2     -3236.883          40.000  
G25  21534261.868 1 113163313.112 1      1647.131          44.000    21534274.467 1  88179252.857 2      1283.707          40.000  
G32  22844335.950 1 120047797.776 2       -35.150          41.000    22844345.460 2               7       -27.118          28.000  
R 1  22002334.231 2 117615088.335 3       596.598          37.000    22002346.201 4                       464.138          29.000  
R 8  20612591.190 1 110379491.695 1      -540.103          46.000    20612599.307 2  85850749.199 3      -420.053          36.000  
R10  19915173.500 2 106159083.480 3     -2908.191          38.000                                                                  
R11  19113609.368 1 102137328.920 1      1203.348          50.000    19113613.029 1  79440163.737 1       935.922          44.000  
R23  20726115.052 1 110870738.729 1     -3434.798          44.000                                                                  
E 9  24043000.095 1 126346816.348 2     -1532.810          40.000    24043015.024 2  96811265.673 5     -1174.105          32.000  
E11  23592927.415 1 123981682.006 3     -3701.992          39.000                                                                  
E24  24789943.931 1 130272033.602 1      1190.682          45.000                                                                  
E36  23380568.231 1 122865719.236 1     -1772.457          46.000                                                                  
C14  22633723.945 1 117859739.057 1       426.644          45.000    22633731.808 1  91136658.915 2       329.649          39.000  
C24  21161341.755 1 110192661.450 1       718.878          47.000                                                                  
> 2023  9 15 18 49 32.7970000  0 17                     
G10  21588489.701 1 113448278.050 1      1748.579          46.000    21588498.644 1  88401294.315 3      1362.566          38.000  
G18  20492556.399 1 107689107.567 1     -3320.596          46.000    20492564.405 1  83913621.026 1     -2587.394          42.000  
G23  19671042.516 1 103372025.524 1       113.122          44.000    19671048.749 1  80549654.886 1        88.048          43.000  
G24  21302553.974 1 111945677.499 2     -4153.841          43.000    21302564.355 1  87230438.627 2     -3236.761          40.000  
G25  21534199.184 1 113162983.697 1      1646.973          44.000    21534211.768 1  88178996.187 2      1283.522          40.000  
G32  22844337.297 1 120047804.725 2       -34.656          41.000    22844346.792 2               6       -27.173          28.000  
R 1  22002311.851 2 117614968.905 3       597.180          37.000    22002323.843 4                       464.381          29.000  
R 8  20612611.376 1 110379599.662 1      -539.877          46.000    20612619.449 2  85850833.197 3      -420.071          36.000  
R10  19915282.619 2 106159665.167 3     -2908.288          38.000                                                                  
R11  19113564.363 1 102137088.272 1      1203.197          50.000    19113567.942 1  79439976.561 1       935.876          44.000  
R23  20726243.479 1 110871425.641 1     -3434.602          44.000                                                                  
E 9  24043058.396 1 126347122.873 2     -1532.416          40.000    24043073.672 2  96811500.589 5     -1174.353          32.000  
E11  23593068.320 1 123982422.359 2     -3701.698          39.000                                                                  
E24  24789898.543 1 130271795.402 1      1191.017          45.000                                                                  
E36  23380635.689 1 122866073.685 1     -1772.264          46.000                                                                  
C14  22633707.551 1 117859653.735 1       426.716          45.000    22633715.416 1  91136592.934 2       329.827          39.000  
C24  21161314.139 1 110192517.674 1       718.689          47.000                                                                  
> 2023  9 15 18 49 32.9970000  0 17                     
G10  21588423.144 1 113447928.366 1      1748.324          46.000    21588432.082 1  88401021.822 2      1362.381          38.000  
G18  20492682.813 1 107689771.705 1     -3320.961          46.000    20492690.794 1  83914138.538 1     -2587.801          42.000  
G23  19671038.264 1 103372002.911 1       112.870          44.000    19671044.434 1  80549637.253 1        88.135          43.000  
G24  21302712.046 1 111946508.250 1     -4154.021          43.000    21302722.470 1  87231085.956 2     -3236.692          40.000  
G25  21534136.471 1 113162654.282 1      1646.998          44.000    21534149.077 1  88178739.501 2      1283.359          40.000  
G32  22844338.605 1 120047811.702 2       -35.114          41.000    22844348.138 2               6       -27.289          29.000  
R 1  22002289.555 2 117614849.528 3       596.709          37.000    22002301.545 4               7       464.423          29.000  
R 8  20612631.540 1 110379707.651 1      -540.143          46.000    20612639.594 2  85850917.160 3      -419.828          36.000  
R10  19915391.733 2 106160246.885 3     -2908.972          38.000                                                                  
R11  19113519.339 1 102136847.666 1      1202.794          50.000    19113522.888 1  79439789.430 1       935.367          44.000  
R23  20726371.906 1 110872112.586 1     -3434.880          44.000                                                                  
E 9  24043116.763 1 126347429.439 2     -1532.925          40.000    24043131.817 2  96811735.487 4     -1174.577          32.000  
E11  23593209.209 1 123983162.748 2     -3702.385          39.000                                                                  
E24  24789853.203 1 130271557.227 1      1190.796          45.000                                                                  
E36  23380703.196 1 122866428.170 1     -1772.652          46.000                                                                  
C14  22633691.116 1 117859568.421 1       426.390          45.000    22633699.049 1  91136526.956 2       329.784          39.000  
C24  21161286.444 1 110192373.924 1       718.514          47.000                                                                  
> 2023  9 15 18 49 33.1970000  0 17                     
G10  21588356.621 1 113447578.693 1      1748.333          46.000    21588365.566 1  88400749.362 2      1362.076          38.000  
G18  20492809.221 1 107690435.862 1     -3320.685          46.000    20492817.216 1  83914656.060 1     -2587.666          42.000  
G23  19671033.952 1 103371980.342 1       112.786          44.000    19671040.143 1  80549619.671 1        87.927          43.000  
G24  21302870.118 1 111947339.044 1     -4153.940          43.000    21302880.578 1  87231733.326 2     -3236.501          40.000  
G25  21534073.728 1 113162324.914 1      1646.915          44.000    21534086.410 1  88178482.842 2      1283.391          40.000  
G32  22844339.967 1 120047818.703 2       -35.114          41.000    22844349.507 2               6       -27.374          29.000  
R 1  22002267.306 2 117614730.125 3       597.047          37.000    22002279.243 4               7       464.274          29.000  
R 8  20612651.743 1 110379815.656 1      -539.962          46.000    20612659.804 2  85851001.182 3      -419.823          36.000  
R10  19915500.858 2 106160828.639 3     -2908.905          39.000                                                                  
R11  19113474.354 1 102136607.095 1      1202.863          50.000    19113477.874 1  79439602.329 1       935.390          44.000  
R23  20726500.327 1 110872799.590 1     -3434.989          44.000                                                                  
E 9  24043175.082 1 126347736.001 2     -1532.709          40.000    24043190.280 2  96811970.386 5     -1174.585          32.000  
E11  23593350.122 1 123983903.139 2     -3702.034          39.000                                                                  
E24  24789807.769 1 130271319.081 1      1190.847          45.000                                                                  
E36  23380770.597 1 122866782.691 1     -1772.618          46.000                                                                  
C14  22633674.723 1 117859483.123 1       426.439          45.000    22633682.682 1  91136461.004 2       329.797          39.000  
C24  21161258.827 1 110192230.214 1       718.542          47.000                                                                  
> 2023  9 15 18 49 33.3970000  0 17                     
G10  21588290.101 1 113447229.031 1      1748.260          46.000    21588299.019 1  88400476.883 2      1362.225          38.000  
G18  20492935.593 1 107691100.055 1     -3321.070          46.000    20492943.602 1  83915173.613 1     -2587.928          42.000  
G23  19671029.697 1 103371957.772 1       112.873          44.000    19671035.866 1  80549602.092 1        87.797          43.000  
G24  21303028.229 1 111948169.836 1     -4154.032          43.000    21303038.693 1  87232380.717 2     -3236.957          40.000  
G25  21534011.046 1 113161995.529 1      1647.030          44.000    21534023.763 1  88178226.195 2      1283.198          40.000  
G32  22844341.296 1 120047825.699 2       -35.022          41.000    22844350.817 2               6       -27.368          29.000  
R 1  22002244.968 2 117614610.724 3       596.777          37.000    22002256.819 4               7       464.436          29.000  
R 8  20612671.862 1 110379923.653 1      -540.094          46.000    20612679.901 2  85851085.178 3      -419.987          36.000  
R10  19915609.991 2 106161410.444 2     -2909.216          38.000                                                                  
R11  19113429.319 1 102136366.573 1      1202.480          50.000    19113432.830 1  79439415.250 1       935.268          44.000  
R23  20726628.719 1 110873486.595 1     -3435.162          44.000                                                                  
E 9  24043233.383 1 126348042.572 2     -1532.935          40.000    24043248.644 2  96812205.294 5     -1174.592          32.000  
E11  23593491.089 1 123984643.535 2     -3701.948          39.000                                                                  
E24  24789762.446 1 130271080.942 1      1190.450          45.000                                                                  
E36  23380838.016 1 122867137.230 1     -1772.791          46.000                                                                  
C14  22633658.275 1 117859397.816 1       426.501          45.000    22633666.290 1  91136395.035 2       329.852          40.000  
C24  21161231.151 1 110192086.515 1       718.511          47.000                                                                  
> 2023  9 15 18 49 33.5970000  0 17                     
G10  21588223.562 1 113446879.355 1      1748.217          46.000    21588232.420 1  88400204.413 2      1362.143          38.000  
G18  20493062.016 1 107691764.250 1     -3321.208          46.000    20493070.014 1  83915691.164 2     -2588.063          42.000  
G23  19671025.437 1 103371935.229 1       112.503          44.000    19671031.563 1  80549584.525 1        87.693          43.000  
G24  21303186.325 1 111949000.635 1     -4154.080          43.000    21303196.754 1  87233028.083 2     -3236.938          40.000  
G25  21533948.347 1 113161666.154 1      1646.625          44.000    21533961.075 1  88177969.525 2      1283.304          40.000  
G32  22844342.676 1 120047832.686 2       -35.156          41.000    22844352.174 2               6       -26.880          28.000  
R 1  22002222.671 2 117614491.293 3       596.762          37.000    22002234.518 4               6       464.249          29.000  
R 8  20612692.045 1 110380031.640 1      -539.944          46.000    20612700.110 2  85851169.176 3      -419.946          36.000  
R10  19915719.120 2 106161992.245 2     -2909.143          38.000                                                                  
R11  19113384.297 1 102136126.056 1      1202.259          50.000    19113387.832 1  79439228.176 1       935.089          44.000  
R23  20726757.081 1 110874173.608 1     -3435.373          44.000                                                                  
E 9  24043291.602 1 126348349.122 2     -1532.818          40.000    24043307.307 2  96812440.181 5     -1174.509          32.000  
E11  23593631.971 1 123985383.952 3     -3702.070          39.000                                                                  
E24  24789717.093 1 130270842.773 1      1190.719          45.000                                                                  
E36  23380905.454 1 122867491.778 1     -1772.978          46.000                                                                  
C14  22633641.766 1 117859312.507 1       426.476          45.000    22633649.882 1  91136329.066 2       329.989          39.000  
C24  21161203.508 1 110191942.833 1       718.125          47.000                                                                  
> 2023  9 15 18 49 33.7970000  0 17                     
G10  21588157.007 1 113446529.707 1      1748.057          46.000    21588165.820 1  88399931.947 2      1362.275          39.000  
G18  20493188.425 1 107692428.488 1     -3321.392          46.000    20493196.391 1  83916208.734 2     -2587.852          42.000  
G23  19671021.167 1 103371912.706 1       112.517          44.000    19671027.265 1  80549566.976 1        87.601          43.000  
G24  21303344.401 1 111949831.467 1     -4154.111          43.000    21303354.878 1  87233675.482 2     -3237.111          40.000  
G25  21533885.656 1 113161336.804 1      1646.805          44.000    21533898.393 1  88177712.904 2      1283.023          40.000  
G32  22844344.002 1 120047839.686 2       -34.924          41.000    22844353.550 2               7       -26.624          28.000  
R 1  22002200.338 2 117614371.861 3       597.080          37.000    22002212.126 4               6       464.553          29.000  
R 8  20612712.151 1 110380139.658 1      -540.066          46.000    20612720.281 2  85851253.189 3      -420.156          36.000  
R10  19915828.295 2 106162574.109 2     -2909.552          38.000                                                                  
R11  19113339.324 1 102135885.587 1      1202.242          50.000    19113342.847 1  79439041.138 1       935.236          44.000  
R23  20726885.497 1 110874860.652 1     -3435.196          44.000                                                                  
E 9  24043349.887 1 126348655.708 2     -1532.906          40.000    24043365.965 2  96812675.078 5     -1174.408          32.000  
E11  23593772.936 1 123986124.380 3     -3702.162          39.000                                                                  
E24  24789671.787 1 130270604.646 1      1190.743          45.000                                                                  
E36  23380972.897 1 122867846.355 1     -1772.853          46.000                                                                  
C14  22633625.403 1 117859227.215 1       426.551          45.000    22633633.506 1  91136263.120 2       329.650          39.000  
C24  21161175.949 1 110191799.183 1       718.192          47.000                                                                  
> 2023  9 15 18 49 33.9970000  0 17                     
G10  21588090.442 1 113446180.055 1      1748.202          46.000    21588099.325 1  88399659.502 2      1362.097          39.000  
G18  20493314.825 1 107693092.727 1     -3321.187          46.000    20493322.759 1  83916726.351 2     -2588.236          42.000  
G23  19671016.840 1 103371890.210 1       112.382          44.000    19671022.999 1  80549549.449 1        87.468          43.000  
G24  21303502.504 1 111950662.306 1     -4154.157          43.000    21303512.959 1  87234322.901 2     -3237.104          40.000  
G25  21533823.008 1 113161007.455 1      1646.824          44.000    21533835.730 1  88177456.258 2      1283.214          40.000  
G32  22844345.304 1 120047846.706 2       -34.961          41.000    22844354.811 2               7       -27.570          28.000  
R 1  22002177.980 2 117614252.427 3       597.788          37.000    22002189.800 4               6       464.230          29.000  
R 8  20612732.330 1 110380247.673 1      -539.929          46.000    20612740.437 2  85851337.196 3      -420.436          36.000  
R10  19915937.434 2 106163155.989 2     -2909.344          39.000                                                                  
R11  19113294.317 1 102135645.149 1      1202.249          50.000    19113297.847 1  79438854.156 1       934.860          44.000  
R23  20727013.939 1 110875547.731 1     -3435.304          44.000                                                                  
E 9  24043408.271 1 126348962.278 2     -1532.790          40.000    24043424.265 2  96812909.986 4     -1174.395          32.000  
E11  23593913.795 1 123986864.843 3     -3702.547          39.000                                                                  
E24  24789626.485 1 130270366.513 1      1190.566          45.000                                                                  
E36  23381040.417 1 122868200.968 1     -1773.027          46.000                                                                  
C14  22633608.990 1 117859141.919 1       426.434          45.000    22633617.089 1  91136197.150 2       329.758          39.000  
C24  21161148.321 1 110191655.552 1       718.084          47.000                                                                  
> 2023  9 15 18 49 34.1970000  0 17                     
G10  21588023.886 1 113445830.409 1      1748.215          46.000    21588032.788 1  88399387.046 2      1362.046          39.000  
G18  20493441.211 1 107693756.998 1     -3321.532          46.000    20493449.163 1  83917243.947 2     -2588.156          42.000  
G23  19671012.494 1 103371867.711 1       112.321          44.000    19671018.670 1  80549531.915 1        87.491          43.000  
G24  21303660.612 1 111951493.151 1     -4154.332          43.000    21303671.052 1  87234970.297 2     -3237.469          40.000  
G25  21533760.326 1 113160678.114 1      1646.592          44.000    21533773.079 1  88177199.640 2      1283.117          40.000  
G32  22844346.638 1 120047853.704 2       -35.059          41.000    22844356.155 2                       -26.721          28.000  
R 1  22002155.628 2 117614133.018 3       597.069          37.000    22002167.399 4  91477714.58815       464.609          29.000  
R 8  20612752.533 1 110380355.679 1      -540.231          46.000    20612760.646 2  85851421.163 3      -419.749          35.000  
R10  19916046.536 2 106163737.899 2     -2909.698          39.000                                                                  
R11  19113249.363 1 102135404.744 1      1201.803          49.000    19113252.843 1  79438667.156 1       934.675          44.000  
R23  20727142.390 1 110876234.815 1     -3435.686          44.000                                                                  
E 9  24043466.671 1 126349268.826 2     -1532.797          40.000    24043482.625 2  96813144.834 4     -1173.483          32.000  
E11  23594054.731 1 123987605.249 2     -3702.264          40.000                                                                  
E24  24789581.073 1 130270128.403 1      1190.476          45.000                                                                  
E36  23381107.863 1 122868555.578 1     -1773.197          45.000                                                                  
C14  22633592.626 1 117859056.614 1       426.402          45.000    22633600.731 1  91136131.188 2       330.049          39.000  
C24  21161120.699 1 110191511.927 1       718.041          47.000                                                                  
> 2023  9 15 18 49 34.3970000  0 17                     
G10  21587957.377 1 113445480.753 1      1748.247          46.000    21587966.265 1  88399114.586 2      1362.156          39.000  
G18  20493567.586 1 107694421.266 1     -3321.404          46.000    20493575.534 1  83917761.560 2     -2588.202          42.000  
G23  19671008.244 1 103371845.229 1       112.353          44.000    19671014.375 1  80549514.406 1        87.350          43.000  
G24  21303818.674 1 111952323.985 1     -4154.263          43.000    21303829.156 1  87235617.690 2     -3236.804          40.000  
G25  21533697.637 1 113160348.761 1      1646.741          44.000    21533710.381 1  88176942.995 2      1283.215          40.000  
G32  22844347.931 1 120047860.703 2       -35.168          41.000    22844357.477 2                       -27.246          27.000  
R 1  22002133.288 2 117614013.584 3       597.129          37.000    22002145.049 4  91477621.736 5       464.199          29.000  
R 8  20612772.681 1 110380463.665 1      -540.039          46.000    20612780.835 2  85851505.174 3      -419.988          35.000  
R10  19916155.691 2 106164319.857 2     -2909.961          39.000                                                                  
R11  19113204.392 1 102135164.339 1      1201.904          49.000    19113207.885 1  79438480.167 1       934.834          44.000  
R23  20727270.855 1 110876921.919 1     -3435.804          44.000                                                                  
E 9  24043525.043 1 126349575.374 2     -1532.892          40.000    24043540.917 2  96813379.785 4     -1174.804          32.000  
E11  23594195.712 1 123988345.683 3     -3702.061          40.000                                                                  
E24  24789535.563 1 130269890.263 1      1190.671          45.000                                                                  
E36  23381175.323 1 122868910.198 1     -1773.162          45.000                                                                  
C14  22633576.199 1 117858971.294 1       426.456          45.000    22633584.352 1  91136065.218 2       330.020          39.000  
C24  21161093.115 1 110191368.311 1       718.045          47.000                                                                  
> 2023  9 15 18 49 34.5970000  0 17                     
G10  21587890.763 1 113445131.112 1      1747.986          46.000    21587899.722 1  88398842.133 3      1362.149          39.000  
G18  20493694.025 1 107695085.574 1     -3321.804          46.000    20493701.982 1  83918279.192 1     -2588.201          42.000  
G23  19671003.990 1 103371822.775 1       112.145          44.000    19671010.124 1  80549496.900 2        87.364          43.000  
G24  21303976.785 1 111953154.850 1     -4154.464          43.000    21303987.276 1  87236265.116 2     -3236.954          40.000  
G25  21533634.938 1 113160019.438 1      1646.535          44.000    21533647.674 1  88176686.383 2      1283.085          40.000  
G32  22844349.265 1 120047867.716 2       -35.205          41.000    22844358.827 2                       -27.393          27.000  
R 1  22002110.910 2 117613894.124 3       597.206          37.000    22002122.633 4  91477528.777 5       464.929          29.000  
R 8  20612792.894 1 110380571.672 1      -540.118          46.000    20612800.939 2  85851589.202 3      -420.278          35.000  
R10  19916264.857 2 106164901.829 2     -2910.150          39.000                                                                  
R11  19113159.442 1 102134923.991 1      1201.557          50.000    19113162.907 1  79438293.240 1       934.407          44.000  
R23  20727399.338 1 110877609.053 1     -3435.911          44.000                                                                  
E 9  24043583.333 1 126349881.928 2     -1532.786          40.000    24043599.261 2  96813614.666 4     -1174.777          32.000  
E11  23594336.717 1 123989086.132 2     -3702.324          40.000                                                                  
E24  24789490.146 1 130269652.165 1      1190.393          45.000                                                                  
E36  23381242.828 1 122869264.861 1     -1773.388          45.000                                                                  
C14  22633559.823 1 117858885.983 1       426.581          45.000    22633567.947 1  91135999.252 2       329.902          39.000  
C24  21161065.546 1 110191224.739 1       717.720          48.000                                                                  
> 2023  9 15 18 49 34.7970000  0 17                     
G10  21587824.194 1 113444781.442 1      1748.426          46.000    21587833.134 1  88398569.693 2      1362.316          39.000  
G18  20493820.366 1 107695749.853 1     -3321.248          46.000    20493828.400 1  83918796.831 2     -2588.057          42.000  
G23  19670999.709 1 103371800.318 1       112.230          45.000    19671005.785 1  80549479.400 2        87.549          43.000  
G24  21304134.928 1 111953985.699 1     -4154.213          43.000    21304145.359 1  87236912.539 2     -3236.952          40.000  
G25  21533572.284 1 113159690.088 1      1646.851          44.000    21533584.973 1  88176429.750 2      1283.466          40.000  
G32  22844350.560 1 120047874.711 2       -34.906          41.000    22844360.117 2                       -27.356          27.000  
R 1  22002088.548 2 117613774.666 3       597.793          37.000    22002100.275 4  91477435.873 5       464.737          29.000  
R 8  20612813.083 1 110380679.647 1      -539.784          46.000    20612821.113 2  85851673.183 3      -419.935          35.000  
R10  19916374.043 2 106165483.817 2     -2909.814          39.000                                                                  
R11  19113114.458 1 102134683.627 1      1201.912          50.000    19113117.932 1  79438106.296 1       934.735          44.000  
R23  20727527.730 1 110878296.180 1     -3435.742          44.000                                                                  
E 9  24043641.602 1 126350188.465 2     -1532.529          40.000    24043657.612 1  96813849.535 4     -1174.448          32.000  
E11  23594477.502 1 123989826.562 2     -3701.758          40.000                                                                  
E24  24789444.905 1 130269414.024 1      1190.702          45.000                                                                  
E36  23381310.289 1 122869619.508 1     -1773.177          45.000                                                                  
C14  22633543.396 1 117858800.637 1       426.968          45.000    22633551.590 1  91135933.271 2       330.024          39.000  
C24  21161038.000 1 110191081.145 1       718.083          48.000                                                                  
> 2023  9 15 18 49 34.9970000  0 17                     
G10  21587757.663 1 113444431.777 1      1748.198          46.000    21587766.553 1  88398297.226 2      1361.819          39.000  
G18  20493946.862 1 107696414.176 1     -3321.767          46.000    20493954.860 1  83919314.468 2     -2588.457          42.000  
G23  19670995.426 1 103371777.853 1       112.119          44.000    19671001.530 1  80549461.899 2        87.321          43.000  
G24  21304292.996 1 111954816.545 1     -4154.401          43.000    21304303.511 1  87237559.978 2     -3237.703          40.000  
G25  21533509.571 1 113159360.735 1      1646.628          44.000    21533522.327 1  88176173.121 2      1282.986          40.000  
G32  22844351.883 1 120047881.696 2       -35.162          41.000    22844361.392 2                       -26.953          27.000  
R 1  22002066.231 2 117613655.183 3       597.251          37.000    22002077.931 4  91477342.929 5       464.728          29.000  
R 8  20612833.203 1 110380787.616 1      -540.106          46.000    20612841.251 2  85851757.151 3      -419.806          35.000  
R10  19916483.247 2 106166065.843 2     -2910.345          39.000                                                                  
R11  19113069.488 1 102134443.300 1      1201.205          50.000    19113073.010 1  79437919.373 1       934.480          44.000  
R23  20727656.180 1 110878983.309 1     -3435.923          44.000                                                                  
E 9  24043699.871 1 126350494.969 2     -1532.816          40.000    24043715.967 1  96814084.396 4     -1174.414          32.000  
E11  23594618.398 1 123990567.021 2     -3702.534          40.000                                                                  
E24  24789399.694 1 130269175.875 1      1190.666          45.000                                                                  
E36  23381377.791 1 122869974.163 1     -1773.525          45.000                                                                  
C14  22633526.954 1 117858715.305 1       426.493          45.000    22633535.158 1  91135867.272 2       329.954          39.000  
C24  21161010.451 1 110190937.571 1       717.636          48.000                                                                  
> 2023  9 15 18 49 35.1970000  0 17                     
G10  21587691.168 1 113444082.107 1      1748.174          46.000    21587699.977 1  88398024.751 2      1361.964          39.000  
G18  20494073.298 1 107697078.488 1     -3321.753          46.000    20494081.248 1  83919832.129 2     -2588.566          42.000  
G23  19670991.159 1 103371755.414 1       112.077          44.000    19670997.292 1  80549444.421 1        87.192          43.000  
G24  21304451.106 1 111955647.383 1     -4154.274          43.000    21304461.624 1  87238207.375 2     -3237.427          40.000  
G25  21533446.880 1 113159031.381 1      1646.699          44.000    21533459.656 1  88175916.489 2      1282.831          40.000  
G32  22844353.161 1 120047888.666 2       -35.089          41.000    22844362.764 2                       -27.124          27.000  
R 1  22002043.863 2 117613535.653 3       597.591          37.000    22002055.611 4  91477250.042 5       464.401          29.000  
R 8  20612853.373 1 110380895.570 1      -540.016          46.000    20612861.401 2  85851841.132 4      -420.160          35.000  
R10  19916592.439 2 106166647.881 2     -2910.638          39.000                                                                  
R11  19113024.532 1 102134202.983 1      1201.221          50.000    19113028.009 1  79437732.488 1       934.089          44.000  
R23  20727784.687 1 110879670.458 1     -3436.059          44.000                                                                  
E 9  24043758.116 1 126350801.474 2     -1532.493          40.000    24043774.260 1  96814319.234 4     -1174.352          32.000  
E11  23594759.308 1 123991307.446 2     -3702.488          40.000                                                                  
E24  24789354.411 1 130268937.734 1      1190.514          45.000                                                                  
E36  23381445.259 1 122870328.827 1     -1773.404          45.000                                                                  
C14  22633510.546 1 117858629.959 1       426.573          45.000    22633518.756 1  91135801.286 2       329.906          39.000  
C24  21160982.833 1 110190793.997 1       717.614          48.000                                                                  
> 2023  9 15 18 49 35.3970000  0 17                     
G10  21587624.600 1 113443732.456 1      1748.389          46.000    21587633.423 1  88397752.276 2      1362.571          39.000  
G18  20494199.760 1 107697742.857 1     -3321.851          46.000    20494207.660 1  83920349.806 2     -2588.466          42.000  
G23  19670986.877 1 103371733.016 1       111.728          44.000    19670992.987 1  80549426.954 1        87.255          43.000  
G24  21304609.222 1 111956478.292 1     -4154.450          43.000    21304619.711 1  87238854.823 2     -3237.271          40.000  
G25  21533384.261 1 113158702.084 1      1646.462          44.000    21533397.018 1  88175659.874 2      1283.032          40.000  
G32  22844354.462 1 120047895.668 2       -34.900          41.000    22844364.074 2                       -27.899          27.000  
R 1  22002021.517 2 117613416.176 3       597.978          37.000    22002033.326 4  91477157.074 5       464.902          29.000  
R 8  20612873.513 1 110381003.551 1      -539.760          46.000    20612881.573 2  85851925.112 4      -419.824          35.000  
R10  19916701.632 2 106167229.972 2     -2910.413          39.000                                                                  
R11  19112979.619 1 102133962.729 1      1201.276          50.000    19112983.069 1  79437545.604 1       934.393          44.000  
R23  20727913.145 1 110880357.647 1     -3435.983          44.000                                                                  
E 9  24043816.415 1 126351108.004 2     -1532.565          40.000    24043832.666 1  96814554.111 4     -1173.750          32.000  
E11  23594900.221 1 123992047.905 2     -3702.238          40.000                                                                  
E24  24789309.142 1 130268699.618 1      1190.658          45.000                                                                  
E36  23381512.816 1 122870683.549 1     -1773.586          45.000                                                                  
C14  22633494.117 1 117858544.635 1       426.679          44.000    22633502.386 1  91135735.312 2       330.024          40.000  
C24  21160955.327 1 110190650.476 1       717.665          48.000                                                                  
> 2023  9 15 18 49 35.5970000  0 17                     
G10  21587558.004 1 113443382.837 1      1748.006          46.000    21587566.869 1  88397479.853 2      1362.334          39.000  
G18  20494326.171 1 107698407.245 1     -3322.059          46.000    20494334.043 1  83920867.510 2     -2588.555          42.000  
G23  19670982.632 1 103371710.632 1       111.840          44.000    19670988.710 1  80549409.514 1        87.157          43.000  
G24  21304767.352 1 111957309.180 2     -4154.575          43.000    21304777.862 1  87239502.269 2     -3237.431          40.000  
G25  21533321.636 1 113158372.776 1      1646.438          44.000    21533334.375 1  88175403.273 2      1282.957          40.000  
G32  22844355.789 1 120047902.695 2       -35.175          41.000    22844365.408 2                       -26.709          27.000  
R 1  22001999.169 2 117613296.709 3       597.372          37.000    22002010.999 4  91477064.184 5       464.156          29.000  
R 8  20612893.710 1 110381111.559 1      -540.117          46.000    20612901.774 2  85852009.116 4      -420.466          35.000  
R10  19916810.836 2 106167812.109 2     -2910.883          39.000                                                                  
R11  19112934.669 1 102133722.533 1      1201.033          50.000    19112938.112 1  79437358.774 1       934.150          44.000  
R23  20728041.658 1 110881044.865 1     -3436.198          44.000                                                                  
E 9  24043874.612 1 126351414.546 2     -1532.612          40.000    24043890.948 1  96814788.993 5     -1173.920          32.000  
E11  23595041.164 1 123992788.398 3     -3702.538          40.000                                                                  
E24  24789263.857 1 130268461.525 1      1190.455          45.000                                                                  
E36  23381580.341 1 122871038.290 1     -1773.799          45.000                                                                  
C14  22633477.752 1 117858459.310 1       426.716          44.000    22633485.985 1  91135669.327 2       329.863          40.000  
C24  21160927.775 1 110190506.985 1       717.403          48.000                                                                  
> 2023  9 15 18 49 35.7970000  0 17                     
G10  21587491.445 1 113443033.178 1      1748.239          46.000    21587500.345 1  88397207.396 2      1362.201          39.000  
G18  20494452.618 1 107699071.611 1     -3321.914          46.000    20494460.490 1  83921385.210 2     -2588.735          42.000  
G23  19670978.370 1 103371688.250 1       111.865          44.000    19670984.451 1  80549392.060 1        87.354          43.000  
G24  21304925.470 1 111958140.063 2     -4154.397          43.000    21304935.941 1  87240149.721 2     -3237.416          40.000  
G25  21533259.000 1 113158043.453 1      1646.552          44.000    21533271.761 1  88175146.658 2      1283.157          40.000  
G32  22844357.085 1 120047909.673 2       -35.144          41.000    22844366.680 2                       -27.362          27.000  
R 1  22001976.800 2 117613177.193 3       597.753          37.000    22001988.688 4  91476971.224 5       464.910          29.000  
R 8  20612913.838 1 110381219.516 1      -539.879          46.000    20612921.951 2  85852093.093 4      -419.974          34.000  
R10  19916920.055 2 106168394.254 2     -2910.779          39.000                                                                  
R11  19112889.708 1 102133482.327 1      1200.823          50.000    19112893.200 1  79437171.944 1       934.042          44.000  
R23  20728170.133 1 110881732.083 1     -3436.269          44.000                                                                  
E 9  24043932.832 1 126351721.047 2     -1532.732          40.000    24043949.249 1  96815023.883 4     -1174.180          32.000  
E11  23595182.033 1 123993528.832 3     -3702.235          40.000                                                                  
E24  24789218.540 1 130268223.400 1      1190.625          45.000                                                                  
E36  23381647.757 1 122871393.013 1     -1773.616          45.000                                                                  
C14  22633461.319 1 117858373.963 1       426.782          44.000    22633469.604 1  91135603.343 2       329.957          40.000  
C24  21160900.245 1 110190363.479 1       717.393          48.000                                                                  
> 2023  9 15 18 49 35.9970000  0 17                     
G10  21587424.900 1 113442683.547 1      1748.168          46.000    21587433.807 1  88396934.949 3      1361.818          39.000  
G18  20494579.103 1 107699736.017 1     -3321.846          46.000    20494586.987 1  83921902.931 1     -2588.956          42.000  
G23  19670974.118 1 103371665.892 1       111.613          44.000    19670980.180 1  80549374.645 1        87.214          43.000  
G24  21305083.596 1 111958970.981 2     -4154.771          43.000    21305094.100 1  87240797.196 2     -3237.624          40.000  
G25  21533196.334 1 113157714.148 1      1646.402          44.000    21533209.102 1  88174890.060 2      1282.922          40.000  
G32  22844358.416 1 120047916.677 2       -34.991          41.000    22844367.949 2                       -27.472          27.000  
R 1  22001954.452 2 117613057.704 3       597.127          37.000    22001966.265 4  91476878.277 5       464.595          29.000  
R 8  20612933.995 1 110381327.491 1      -539.839          46.000    20612942.086 2  85852177.053 4      -419.752          34.000  
R10  19917029.280 2 106168976.434 2     -2910.980          39.000                                                                  
R11  19112844.781 1 102133242.152 1      1200.835          50.000    19112848.313 1  79436985.150 1       933.773          44.000  
R23  20728298.562 1 110882419.319 1     -3436.266          44.000                                                                  
E 9  24043991.108 1 126352027.571 2     -1532.491          39.000    24044007.617 1  96815258.713 5     -1173.859          32.000  
E11  23595322.936 1 123994269.319 3     -3702.448          40.000                                                                  
E24  24789173.280 1 130267985.297 1      1190.519          45.000                                                                  
E36  23381715.218 1 122871747.769 1     -1773.757          45.000                                                                  
C14  22633444.920 1 117858288.630 1       426.710          45.000    22633453.209 1  91135537.341 2       330.011          40.000  
C24  21160872.684 1 110190220.002 1       717.395          48.000                                                                  
> 2023  9 15 18 49 36.1970000  0 17                     
G10  21587358.348 1 113442333.903 1      1748.090          46.000    21587367.296 1  88396662.487 2      1362.445          39.000  
G18  20494705.600 1 107700400.453 1     -3322.219          46.000    20494713.454 1  83922420.644 2     -2588.563          42.000  
G23  19670969.891 1 103371643.539 1       111.656          44.000    19670975.933 1  80549357.230 1        87.004          43.000  
G24  21305241.685 1 111959801.890 2     -4154.835          43.000    21305252.228 1  87241444.656 2     -3237.595          40.000  
G25  21533133.658 1 113157384.850 1      1646.428          44.000    21533146.493 1  88174633.463 2      1283.022          40.000  
G32  22844359.735 1 120047923.700 2       -35.126          41.000    22844369.201 2                       -27.356          26.000  
R 1  22001932.112 2 117612938.161 3       597.705          37.000    22001943.895 4               6       465.147          29.000  
R 8  20612954.165 1 110381435.469 1      -539.944          46.000    20612962.225 2  85852261.018 4      -419.518          34.000  
R10  19917138.485 2 106169558.660 2     -2911.303          39.000                                                                  
R11  19112799.828 1 102133001.997 1      1200.534          50.000    19112803.397 1  79436798.353 1       934.010          44.000  
R23  20728427.088 1 110883106.577 1     -3436.408          44.000                                                                  
E 9  24044049.431 1 126352334.082 2     -1532.640          39.000    24044065.921 1  96815493.583 5     -1174.021          32.000  
E11  23595463.859 1 123995009.794 2     -3702.460          40.000                                                                  
E24  24789128.032 1 130267747.186 1      1190.465          45.000                                                                  
E36  23381782.711 1 122872102.549 1     -1773.947          45.000                                                                  
C14  22633428.531 1 117858203.285 1       426.758          45.000    22633436.846 1  91135471.346 2       330.061          40.000  
C24  21160845.082 1 110190076.539 1       717.190          48.000                                                                  
> 2023  9 15 18 49 36.3970000  0 17                     
G10  21587291.769 1 113441984.259 1      1748.152          46.000    21587300.722 1  88396390.059 2      1362.094          39.000  
G18  20494832.068 1 107701064.900 1     -3322.296          46.000    20494839.911 1  83922938.401 2     -2588.746          42.000  
G23  19670965.691 1 103371621.209 1       111.602          44.000    19670971.678 1  80549339.834 1        86.932          43.000  
G24  21305399.779 1 111960632.809 2     -4154.575          43.000    21305410.318 1  87242092.113 2     -3237.184          40.000  
G25  21533070.974 1 113157055.553 1      1646.418          44.000    21533083.828 1  88174376.873 2      1283.052          40.000  
G32  22844361.052 1 120047930.689 2       -35.126          41.000    22844370.574 2                       -27.283          26.000  
R 1  22001909.734 2 117612818.656 3       597.761          37.000    22001921.583 4               6       464.323          29.000  
R 8  20612974.306 1 110381543.441 1      -539.908          45.000    20612982.337 2  85852344.985 4      -419.349          34.000  
R10  19917247.691 2 106170140.892 2     -2911.255          39.000                                                                  
R11  19112754.854 1 102132761.875 1      1200.548          50.000    19112758.447 1  79436611.602 1       933.574          44.000  
R23  20728555.537 1 110883793.868 1     -3436.534          44.000                                                                  
E 9  24044107.645 1 126352640.593 2     -1532.552          39.000    24044124.225 1  96815728.436 5     -1174.184          32.000  
E11  23595604.728 1 123995750.302 2     -3702.596          40.000                                                                  
E24  24789082.740 1 130267509.088 1      1190.590          45.000    24789102.473 9                       911.035          38.000  
E36  23381850.194 1 122872457.337 1     -1773.998          45.000    23381870.271 9                     -1358.761          40.000  
C14  22633412.064 1 117858117.945 1       426.715          45.000    22633420.454 1  91135405.356 2       330.110          40.000  
C24  21160817.640 1 110189933.089 1       717.249          48.000                                                                  
> 2023  9 15 18 49 36.5970000  0 17                     
G10  21587225.210 1 113441634.612 1      1748.069          45.000    21587234.221 1  88396117.610 2      1362.066          39.000  
G18  20494958.506 1 107701729.348 1     -3322.610          46.000    20494966.363 1  83923456.152 2     -2589.004          42.000  
G23  19670961.469 1 103371598.891 1       111.220          44.000    19670967.451 1  80549322.430 1        86.980          43.000  
G24  21305557.893 1 111961463.729 1     -4154.752          43.000    21305568.458 1  87242739.587 2     -3237.489          40.000  
G25  21533008.275 1 113156726.257 1      1646.284          44.000    21533021.144 1  88174120.277 2      1282.673          40.000  
G32  22844362.402 1 120047937.675 2       -34.845          41.000    22844371.866 2                       -27.191          26.000  
R 1  22001887.371 2 117612699.111 3       597.377          37.000    22001899.240 4               6       465.197          29.000  
R 8  20612994.437 1 110381651.399 1      -540.099          45.000    20613002.486 2  85852428.968 4      -419.668          34.000  
R10  19917356.936 2 106170723.161 2     -2911.646          39.000                                                                  
R11  19112709.893 1 102132521.772 1      1200.278          50.000    19112713.556 1  79436424.845 1       933.581          44.000  
R23  20728684.005 1 110884481.157 1     -3436.771          44.000                                                                  
E 9  24044165.952 1 126352947.087 2     -1532.628          39.000    24044182.539 1  96815963.314 5     -1174.558          32.000  
E11  23595745.634 1 123996490.751 2     -3702.479          40.000                                                                  
E24  24789037.501 1 130267270.978 1      1190.369          45.000    24789055.952 9               7       913.513          38.000  
E36  23381917.756 1 122872812.141 1     -1774.209          46.000    23381938.438 9               7     -1358.351          40.000  
C14  22633395.708 1 117858032.590 1       426.535          45.000    22633404.034 1  91135339.346 2       330.005          40.000  
C24  21160790.095 1 110189789.656 1       716.819          48.000                                                                  
> 2023  9 15 18 49 36.7970000  0 17                     
G10  21587158.646 1 113441284.956 1      1748.201          45.000    21587167.665 1  88395845.147 2      1362.061          39.000  
G18  20495084.934 1 107702393.808 1     -3322.422          46.000    20495092.821 1  83923973.903 1     -2588.566          42.000  
G23  19670957.212 1 103371576.563 1       111.466          44.000    19670963.230 1  80549305.048 1        86.729          43.000  
G24  21305716.011 1 111962294.671 1     -4154.806          43.000    21305726.581 1  87243387.066 2     -3237.481          39.000  
G25  21532945.598 1 113156396.944 1      1646.538          44.000    21532958.481 1  88173863.667 2      1282.999          40.000  
G32  22844363.715 1 120047944.662 2       -34.778          41.000    22844373.140 4                       -26.965          26.000  
R 1  22001864.954 2 117612579.564 3       597.882          37.000    22001876.954 4               6       465.011          29.000  
R 8  20613014.595 1 110381759.349 1      -539.757          45.000    20613022.601 2  85852512.924 4      -419.355          34.000  
R10  19917466.227 2 106171305.466 2     -2911.737          39.000                                                                  
R11  19112664.963 1 102132281.687 1      1200.231          50.000    19112668.587 1  79436238.118 1       933.624          44.000  
R23  20728812.532 1 110885168.447 1     -3436.530          44.000                                                                  
E 9  24044224.239 1 126353253.573 2     -1532.369          39.000    24044240.818 1  96816198.119 5     -1174.122          32.000  
E11  23595886.471 1 123997231.231 2     -3702.409          40.000                                                                  
E24  24788992.229 1 130267032.871 1      1190.524          45.000    24789011.581 9               6       912.020          38.000  
E36  23381985.269 1 122873166.947 1     -1774.074          46.000    23382003.933 9               6     -1359.889          40.000  
C14  22633379.330 1 117857947.224 1       426.688          45.000    22633387.627 1  91135273.340 2       330.110          40.000  
C24  21160762.578 1 110189646.225 1       717.079          48.000                                                                  
> 2023  9 15 18 49 36.9970000  0 17                     
G10  21587092.084 1 113440935.333 1      1748.160          45.000    21587101.110 1  88395572.715 2      1361.812          39.000  
G18  20495211.367 1 107703058.311 1     -3322.597          46.000    20495219.296 1  83924491.714 1     -2589.138          42.000  
G23  19670952.948 1 103371554.282 1       111.549          44.000    19670959.050 1  80549287.680 1        86.692          43.000  
G24  21305874.171 1 111963125.626 1     -4154.810          43.000    21305884.669 1  87244034.563 2     -3237.543          39.000  
G25  21532882.936 1 113156067.675 1      1646.373          45.000    21532895.815 1  88173607.109 2      1282.827          39.000  
G32  22844365.018 1 120047951.664 2       -34.973          41.000    22844374.403 4                       -26.959          26.000  
R 1  22001842.559 2 117612460.046 3       597.408          37.000    22001854.650 4               6       464.930          29.000  
R 8  20613034.733 1 110381867.329 1      -539.812          45.000    20613042.812 2  85852596.924 4      -419.905          34.000  
R10  19917575.407 2 106171887.810 2     -2912.134          39.000                                                                  
R11  19112620.017 1 102132041.655 1      1200.159          50.000    19112623.653 1  79436051.433 1       933.288          44.000  
R23  20728941.017 1 110885855.798 1     -3436.824          44.000                                                                  
E 9  24044282.605 1 126353560.064 2     -1532.604          39.000    24044299.152 1               6     -1173.388          32.000  
E11  23596027.289 1 123997971.741 2     -3702.516          40.000                                                                  
E24  24788946.910 1 130266794.790 1      1190.439          45.000    24788965.830 9  99814890.56915       912.140          38.000  
E36  23382052.854 1 122873521.810 1     -1774.334          46.000    23382071.462 9  94149920.73015     -1359.607          40.000  
C14  22633362.958 1 117857861.875 1       426.838          45.000    22633371.266 1  91135207.338 2       330.017          40.000  
C24  21160735.030 1 110189502.833 1       716.948          48.000                                                                  
> 2023  9 15 18 49 37.1970000  0 17                     
G10  21587025.542 1 113440585.669 1      1748.312          45.000    21587034.571 1  88395300.253 2      1362.209          39.000  
G18  20495337.822 1 107703722.789 1     -3322.413          46.000    20495345.748 1  83925009.490 1     -2589.055          42.000  
G23  19670948.717 1 103371531.987 1       111.548          44.000    19670954.826 1  80549270.302 1        86.926          43.000  
G24  21306032.285 1 111963956.552 1     -4154.681          43.000    21306042.745 1  87244682.056 2     -3237.506          39.000  
G25  21532820.231 1 113155738.381 1      1646.365          45.000    21532833.154 1  88173350.510 2      1282.790          39.000  
G32  22844366.335 1 120047958.641 2       -34.631          41.000    22844375.638 4                       -27.887          25.000  
R 1  22001820.200 2 117612340.431 3       597.986          37.000    22001832.258 4               6       465.041          29.000  
R 8  20613054.887 1 110381975.261 1      -539.535          45.000    20613062.981 2  85852680.883 4      -419.713          34.000  
R10  19917684.648 2 106172470.141 2     -2911.737          39.000                                                                  
R11  19112575.135 1 102131801.614 1      1200.238          50.000    19112578.759 1  79435864.740 1       933.464          44.000  
R23  20729069.519 1 110886543.118 1     -3436.696          44.000                                                                  
E 9  24044340.903 1 126353866.535 2     -1532.360          39.000    24044357.484 1               6     -1174.177          32.000  
E11  23596168.138 1 123998712.218 2     -3702.545          39.000                                                                  
E24  24788901.622 1 130266556.658 1      1190.649          45.000    24788920.494 9  99814708.129 5       912.209          38.000  
E36  23382120.461 1 122873876.642 1     -1774.238          46.000    23382138.236 9  94150192.624 5     -1359.575          40.000  
C14  22633346.587 1 117857776.493 1       426.935          45.000    22633354.849 1  91135141.316 2       329.935          40.000  
C24  21160707.479 1 110189359.432 1       716.909          48.000                                                                  
> 2023  9 15 18 49 37.3970000  0 17                     
G10  21586959.004 1 113440236.010 1      1748.263          46.000    21586968.073 1  88395027.792 2      1361.996          39.000  
G18  20495464.295 1 107704387.286 1     -3322.637          46.000    20495472.181 1  83925527.263 1     -2588.937          42.000  
G23  19670944.504 1 103371509.698 1       111.462          44.000    19670950.588 1  80549252.933 1        86.809          43.000  
G24  21306190.381 1 111964787.487 1     -4154.762          43.000    21306200.859 1  87245329.513 2     -3237.309          39.000  
G25  21532757.567 1 113155409.086 1      1646.421          45.000    21532770.438 1  88173093.891 2      1283.211          39.000  
G32  22844367.687 1 120047965.623 2       -34.851          41.000    22844376.968 4                       -27.313          25.000  
R 1  22001797.825 2 117612220.855 3       597.811          37.000    22001809.900 4               6       464.901          29.000  
R 8  20613075.043 1 110382083.199 1      -539.734          45.000    20613083.117 2  85852764.830 4      -419.740          34.000  
R10  19917793.910 2 106173052.507 2     -2911.780          39.000                                                                  
R11  19112530.256 1 102131561.600 1      1199.984          50.000    19112533.822 1  79435678.057 1       933.289          44.000  
R23  20729197.960 1 110887230.455 1     -3436.839          44.000                                                                  
E 9  24044399.234 1 126354172.985 2     -1532.240          39.000    24044415.759 1               6     -1174.113          32.000  
E11  23596309.064 1 123999452.700 2     -3702.489          40.000                                                                  
E24  24788856.314 1 130266318.543 1      1190.512          45.000    24788875.352 9  99814525.655 4       912.456          38.000  
E36  23382187.996 1 122874231.483 1     -1774.243          46.000    23382206.312 9  94150464.504 4     -1359.281          40.000  
C14  22633330.148 1 117857691.097 1       426.990          45.000    22633338.446 1  91135075.294 2       330.010          40.000  
C24  21160679.908 1 110189216.030 1       716.881          48.000                                                                  
> 2023  9 15 18 49 37.5970000  0 17                     
G10  21586892.478 1 113439886.358 1      1748.250          46.000    21586901.529 1  88394755.334 2      1361.938          39.000  
G18  20495590.772 1 107705051.804 1     -3322.784          46.000    20495598.663 1  83926045.072 1     -2588.997          42.000  
G23  19670940.265 1 103371487.434 1       111.279          44.000    19670946.359 1  80549235.581 1        86.675          43.000  
G24  21306348.497 1 111965618.442 1     -4154.948          43.000    21306358.995 1  87245977.001 2     -3237.082          39.000  
G25  21532694.871 1 113155079.784 1      1646.491          45.000    21532707.806 1  88172837.303 2      1283.183          39.000  
G32  22844368.996 1 120047972.600 2       -34.949          41.000    22844378.241 4                       -27.197          25.000  
R 1  22001775.441 2 117612101.234 3       598.173          37.000    22001787.538 4               7       464.938          29.000  
R 8  20613095.217 1 110382191.126 1      -539.669          45.000    20613103.242 2  85852848.763 4      -419.183          34.000  
R10  19917903.179 2 106173634.907 2     -2912.207          39.000                                                                  
R11  19112485.392 1 102131321.619 1      1199.681          50.000    19112488.943 1  79435491.406 1       933.108          44.000  
R23  20729326.495 1 110887917.816 1     -3436.767          44.000                                                                  
E 9  24044457.453 1 126354479.460 2     -1532.425          40.000    24044474.037 1  96817137.452 5     -1174.040          32.000  
E11  23596449.832 1 124000193.186 2     -3702.492          40.000                                                                  
E24  24788811.001 1 130266080.428 1      1190.483          45.000    24788829.573 8  99814343.236 3       911.895          38.000  
E36  23382255.628 1 122874586.364 1     -1774.569          46.000    23382273.338 8  94150736.421 3     -1359.689          40.000  
C14  22633313.724 1 117857605.708 1       426.990          45.000    22633322.060 1  91135009.266 2       329.874          40.000  
C24  21160652.351 1 110189072.658 1       716.735          48.000                                                                  
> 2023  9 15 18 49 37.7970000  0 17                     
G10  21586825.973 1 113439536.686 1      1748.177          46.000    21586834.973 1  88394482.839 2      1362.604          39.000  
G18  20495717.268 1 107705716.318 1     -3322.782          46.000    20495725.142 1  83926562.873 1     -2588.906          42.000  
G23  19670935.984 1 103371465.162 1       111.235          44.000    19670942.187 1  80549218.227 1        86.575          43.000  
G24  21306506.572 1 111966449.373 1     -4154.948          43.000    21306517.073 1  87246624.480 2     -3237.236          39.000  
G25  21532632.176 1 113154750.486 1      1646.195          45.000    21532645.155 1  88172580.703 2      1283.150          39.000  
G32  22844370.305 1 120047979.553 2       -35.089          41.000    22844379.577 4                       -27.380          25.000  
R 1  22001753.027 2 117611981.621 3       598.058          37.000    22001765.208 4               6       465.487          29.000  
R 8  20613115.381 1 110382299.048 1      -539.653          45.000    20613123.372 2  85852932.713 4      -419.492          34.000  
R10  19918012.444 2 106174217.329 2     -2912.262          40.000                                                                  
R11  19112440.534 1 102131081.639 1      1199.750          50.000    19112444.064 1  79435304.755 1       933.183          44.000  
R23  20729455.021 1 110888605.177 1     -3436.938          44.000                                                                  
E 9  24044515.727 1 126354785.884 2     -1532.317          40.000    24044532.403 1  96817372.244 5     -1173.715          32.000  
E11  23596590.660 1 124000933.651 2     -3702.516          40.000                                                                  
E24  24788765.780 1 130265842.299 1      1190.639          45.000    24788784.662 8  99814160.752 3       912.123          38.000  
E36  23382323.093 1 122874941.219 1     -1774.302          46.000    23382341.428 8  94151008.328 3     -1359.578          40.000  
C14  22633297.298 1 117857520.313 1       426.841          45.000    22633305.625 1  91134943.193 2       330.321          40.000  
C24  21160624.820 1 110188929.286 1       716.608          48.000                                                                  
> 2023  9 15 18 49 37.9970000  0 17                     
G10  21586759.457 1 113439187.036 1      1748.363          46.000    21586768.430 1  88394210.397 2      1362.546          39.000  
G18  20495843.729 1 107706380.872 1     -3322.878          46.000    20495851.588 1  83927080.707 1     -2589.264          42.000  
G23  19670931.712 1 103371442.937 1       111.046          44.000    19670937.946 1  80549200.904 1        86.510          43.000  
G24  21306664.651 1 111967280.333 1     -4154.674          43.000    21306675.226 1  87247272.005 2     -3237.823          39.000  
G25  21532569.491 1 113154421.206 1      1646.426          45.000    21532582.484 1  88172324.154 2      1282.980          39.000  
G32  22844371.646 1 120047986.534 2       -34.833          41.000    22844380.848 4                       -27.020          25.000  
R 1  22001730.615 2 117611862.021 3       598.008          37.000    22001742.893 4               7       465.065          29.000  
R 8  20613135.553 1 110382406.994 1      -539.818          45.000    20613143.493 2  85853016.682 4      -419.878          34.000  
R10  19918121.701 1 106174799.792 2     -2912.439          40.000                                                                  
R11  19112395.642 1 102130841.723 1      1199.610          50.000    19112399.149 1  79435118.153 1       932.849          44.000  
R23  20729583.531 1 110889292.586 1     -3437.147          44.000                                                                  
E 9  24044574.122 1 126355092.344 2     -1532.063          40.000    24044590.767 1  96817607.051 5     -1173.992          32.000  
E11  23596731.590 1 124001674.150 2     -3702.248          40.000                                                                  
E24  24788720.469 1 130265604.201 1      1190.492          45.000    24788740.391 8  99813978.313 3       912.075          38.000  
E36  23382390.648 1 122875296.133 1     -1774.668          46.000    23382409.447 8  94151280.278 3     -1359.731          40.000  
C14  22633280.904 1 117857434.924 1       426.928          45.000    22633289.235 1  91134877.192 2       330.078          40.000  
C24  21160597.275 1 110188785.953 1       716.512          48.000                                                                  
> 2023  9 15 18 49 38.1970000  0 17                     
G10  21586692.926 1 113438837.398 1      1748.213          46.000    21586701.874 1  88393937.954 2      1362.167          39.000  
G18  20495970.186 1 107707045.444 1     -3322.937          46.000    20495978.099 1  83927598.562 1     -2589.342          42.000  
G23  19670927.517 1 103371420.714 1       111.016          44.000    19670933.680 1  80549183.586 1        86.695          43.000  
G24  21306822.774 1 111968111.317 1     -4154.835          43.000    21306833.375 1  87247919.511 2     -3237.775          39.000  
G25  21532506.822 1 113154091.929 1      1646.390          45.000    21532519.788 1  88172067.589 2      1282.305          39.000  
G32  22844372.956 1 120047993.528 2       -34.955          41.000    22844382.120 4                       -26.953          25.000  
R 1  22001708.225 2 117611742.388 3       598.075          37.000    22001720.433 4               7       465.281          29.000  
R 8  20613155.711 1 110382514.921 1      -539.790          45.000    20613163.616 2  85853100.628 4      -420.244          34.000  
R10  19918230.959 2 106175382.301 2     -2912.482          40.000                                                                  
R11  19112350.783 1 102130601.827 1      1199.425          50.000    19112354.241 1  79434931.567 1       932.891          44.000  
R23  20729712.050 1 110889980.001 1     -3437.237          44.000                                                                  
E 9  24044632.534 1 126355398.796 2     -1532.272          40.000    24044649.102 1  96817841.883 5     -1173.796          32.000  
E11  23596872.428 1 124002414.657 2     -3702.574          40.000                                                                  
E24  24788675.106 1 130265366.102 1      1190.417          45.000    24788694.068 4  99813795.881 3       912.142          39.000  
E36  23382458.252 1 122875651.054 1     -1774.683          46.000    23382476.818 4  94151552.226 3     -1359.858          40.000  
C14  22633264.531 1 117857349.526 1       426.903          45.000    22633272.842 1  91134811.149 2       330.069          40.000  
C24  21160569.751 1 110188642.622 1       716.554          48.000                                                                  
> 2023  9 15 18 49 38.3970000  0 17                     
G10  21586626.380 1 113438487.795 1      1747.942          46.000    21586635.358 1  88393665.532 2      1362.029          39.000  
G18  20496096.676 1 107707710.072 1     -3323.329          46.000    20496104.569 1  83928116.446 2     -2589.662          42.000  
G23  19670923.301 1 103371398.545 1       110.748          44.000    19670929.512 1  80549166.325 1        86.082          43.000  
G24  21306980.893 1 111968942.342 1     -4155.347          43.000    21306991.499 1  87248567.041 2     -3237.594          39.000  
G25  21532444.149 1 113153762.704 1      1645.990          45.000    21532457.135 1  88171811.028 2      1282.481          39.000  
G32  22844374.269 1 120048000.542 2       -35.291          41.000    22844383.436 4                       -28.131          24.000  
R 1  22001685.826 2 117611622.808 3       597.756          36.000    22001698.095 4               7       465.211          28.000  
R 8  20613175.859 1 110382622.891 1      -539.866          45.000    20613183.730 2  85853184.588 4      -419.898          34.000  
R10  19918340.259 2 106175964.876 2     -2913.171          40.000                                                                  
R11  19112305.892 1 102130361.995 1      1199.026          50.000    19112309.309 1  79434745.033 1       932.527          44.000  
R23  20729840.541 1 110890667.478 1     -3437.495          44.000                                                                  
E 9  24044690.924 1 126355705.271 2     -1532.516          40.000    24044707.429 1  96818076.704 5     -1174.500          32.000  
E11  23597013.385 1 124003155.226 2     -3702.956          40.000                                                                  
E24  24788629.800 1 130265128.036 1      1190.190          45.000    24788648.668 4  99813613.453 3       912.118          39.000  
E36  23382525.838 1 122876006.036 1     -1775.154          45.000    23382543.416 4  94151824.231 2     -1360.374          40.000  
C14  22633248.110 1 117857264.159 1       426.806          45.000    22633256.418 1  91134745.151 2       329.968          40.000  
C24  21160542.239 1 110188499.356 1       716.237          48.000                                                                  
> 2023  9 15 18 49 38.5970000  0 17                     
G10  21586559.866 1 113438138.187 1      1748.034          46.000    21586568.819 1  88393393.116 2      1362.018          39.000  
G18  20496223.206 1 107708374.712 1     -3323.463          46.000    20496231.059 1  83928634.345 2     -2589.572          42.000  
G23  19670919.092 1 103371376.390 1       110.605          45.000    19670925.276 1  80549149.048 1        86.278          43.000  
G24  21307138.998 1 111969773.353 1     -4155.111          43.000    21307149.634 1  87249214.614 2     -3237.921          39.000  
G25  21532381.480 1 113153433.473 1      1646.019          45.000    21532394.437 1  88171554.485 2      1282.910          39.000  
G32  22844375.568 1 120048007.552 2       -35.413          41.000    22844384.761 4                       -27.277          24.000  
R 1  22001663.420 2 117611503.192 3       598.002          36.000    22001675.826 4               7       465.168          28.000  
R 8  20613195.998 1 110382730.855 1      -539.908          45.000    20613203.839 2  85853268.568 4      -419.452          34.000  
R10  19918449.515 1 106176547.471 2     -2913.440          40.000                                                                  
R11  19112260.987 1 102130122.196 1      1198.835          50.000    19112264.443 1  79434558.515 1       932.528          44.000  
R23  20729969.043 1 110891354.961 1     -3437.422          44.000                                                                  
E 9  24044749.348 1 126356011.758 2     -1532.685          40.000    24044765.812 1  96818311.567 5     -1174.255          32.000  
E11  23597154.464 1 124003895.770 2     -3703.094          40.000                                                                  
E24  24788584.502 1 130264889.978 1      1190.201          45.000    24788603.265 4  99813431.057 3       911.994          39.000  
E36  23382593.336 1 122876361.018 1     -1775.087          45.000    23382612.355 4  94152096.220 2     -1360.053          40.000  
C14  22633231.685 1 117857178.788 1       426.935          45.000    22633240.017 1  91134679.137 2       329.850          40.000  
C24  21160514.706 1 110188356.096 1       716.231          48.000                                                                  
> 2023  9 15 18 49 38.7970000  0 17                     
G10  21586493.349 1 113437788.574 1      1748.091          46.000    21586502.245 1  88393120.688 2      1361.991          39.000  
G18  20496349.699 1 107709039.342 1     -3323.150          46.000    20496357.571 1  83929152.247 2     -2589.469          42.000  
G23  19670914.868 1 103371354.233 1       110.920          45.000    19670921.065 1  80549131.786 1        86.390          43.000  
G24  21307297.151 1 111970604.389 1     -4155.180          43.000    21307307.761 1  87249862.130 2     -3237.317          39.000  
G25  21532318.836 1 113153104.244 1      1646.223          45.000    21532331.789 1  88171297.953 2      1282.493          39.000  
G32  22844376.901 1 120048014.527 2       -34.650          41.000    22844386.036 4                       -26.074          24.000  
R 1  22001641.048 2 117611383.568 3       598.013          36.000    22001653.343 4               6       464.962          28.000  
R 8  20613216.184 1 110382838.795 1      -539.668          45.000    20613224.000 2  85853352.520 4      -419.884          34.000  
R10  19918558.805 1 106177130.084 2     -2913.098          40.000                                                                  
R11  19112216.064 1 102129882.391 1      1198.897          50.000    19112219.596 1  79434371.998 1       932.516          44.000  
R23  20730097.562 1 110892042.452 1     -3437.463          44.000                                                                  
E 9  24044807.630 1 126356318.202 2     -1532.220          40.000    24044824.116 1  96818546.358 5     -1173.848          32.000  
E11  23597295.439 1 124004636.307 2     -3702.694          40.000                                                                  
E24  24788539.191 1 130264651.905 1      1190.415          45.000    24788558.595 4  99813248.636 2       912.280          39.000  
E36  23382660.804 1 122876715.998 1     -1774.866          45.000    23382679.426 2  94152368.237 2     -1360.287          40.000  
C14  22633215.310 1 117857093.395 1       427.113          45.000    22633223.617 1  91134613.113 2       330.151          40.000  
C24  21160487.248 1 110188212.834 1       716.425          48.000                                                                  
> 2023  9 15 18 49 38.9970000  0 17                     
G10  21586426.816 1 113437438.956 1      1748.021          46.000    21586435.752 1  88392848.260 2      1361.893          39.000  
G18  20496476.190 1 107709704.001 1     -3323.406          46.000    20496484.055 1  83929670.158 1     -2589.606          42.000  
G23  19670910.663 1 103371332.099 1       110.545          45.000    19670916.825 1  80549114.541 1        86.230          43.000  
G24  21307455.317 1 111971435.408 1     -4155.227          43.000    21307465.973 1  87250509.708 2     -3237.634          39.000  
G25  21532256.144 1 113152775.016 1      1646.157          45.000    21532269.163 1  88171041.403 2      1282.943          39.000  
G32  22844378.243 1 120048021.555 2       -35.352          41.000    22844387.346 4                       -27.551          24.000  
R 1  22001618.660 2 117611263.933 3       598.223          36.000    22001630.971 4               6       465.128          29.000  
R 8  20613236.335 1 110382946.743 1      -539.902          45.000    20613244.145 2  85853436.494 4      -419.710          34.000  
R10  19918668.112 1 106177712.723 2     -2913.513          40.000                                                                  
R11  19112171.222 1 102129642.623 1      1198.669          50.000    19112174.681 1  79434185.516 1       932.352          44.000  
R23  20730226.091 1 110892729.959 1     -3437.724          44.000                                                                  
E 9  24044866.012 1 126356624.656 2     -1532.313          40.000    24044882.354 1  96818781.154 5     -1173.549          32.000  
E11  23597436.357 1 124005376.839 2     -3702.937          40.000                                                                  
E24  24788493.809 1 130264413.825 1      1190.507          45.000    24788512.648 2  99813066.241 2       911.479          39.000  
E36  23382728.259 1 122877071.015 1     -1775.124          45.000    23382746.539 2  94152640.250 2     -1360.365          40.000  
C14  22633198.869 1 117857008.008 1       426.959          45.000    22633207.188 1  91134547.091 2       329.904          40.000  
C24  21160459.720 1 110188069.601 1       716.088          48.000                                                                  
> 2023  9 15 18 49 39.1970000  0 17                     
G10  21586360.272 1 113437089.347 1      1747.988          46.000    21586369.255 1  88392575.835 2      1362.071          39.000  
G18  20496602.671 1 107710368.673 1     -3323.442          46.000    20496610.550 1  83930188.076 1     -2589.384          42.000  
G23  19670906.471 1 103371309.975 1       110.447          44.000    19670912.622 1  80549097.310 1        86.016          43.000  
G24  21307613.465 1 111972266.440 1     -4155.041          43.000    21307624.104 1  87251157.275 2     -3238.021          39.000  
G25  21532193.493 1 113152445.797 1      1645.929          45.000    21532206.467 1  88170784.866 2      1282.799          39.000  
G32  22844379.561 1 120048028.554 2       -35.248          41.000    22844388.628 4                       -26.990          24.000  
R 1  22001596.228 2 117611144.311 3       597.958          36.000    22001608.606 4               6       465.177          28.000  
R 8  20613256.449 1 110383054.687 1      -539.946          45.000    20613264.273 2  85853520.473 4      -420.581          34.000  
R10  19918777.443 1 106178295.408 2     -2913.788          40.000                                                                  
R11  19112126.313 1 102129402.884 1      1198.573          50.000    19112129.780 1  79433999.057 1       932.179          44.000  
R23  20730354.619 1 110893417.491 1     -3437.754          44.000                                                                  
E 9  24044924.378 1 126356931.099 2     -1532.163          40.000    24044940.627 1  96819016.007 5     -1174.284          32.000  
E11  23597577.303 1 124006117.391 2     -3702.673          40.000                                                                  
E24  24788448.514 1 130264175.775 1      1190.227          45.000    24788467.591 2  99812883.826 2       911.762          39.000  
E36  23382795.940 1 122877426.051 1     -1775.375          45.000    23382814.446 2  94152912.267 2     -1359.995          40.000  
C14  22633182.449 1 117856922.621 1       427.009          45.000    22633190.774 1  91134481.064 2       330.010          40.000  
C24  21160432.203 1 110187926.389 1       715.960          48.000                                                                  
> 2023  9 15 18 49 39.3970000  0 17                     
G10  21586293.781 1 113436739.728 1      1748.019          46.000    21586302.706 1  88392303.401 2      1361.978          39.000  
G18  20496729.169 1 107711033.356 1     -3323.529          46.000    20496737.023 1  83930706.025 1     -2589.767          42.000  
G23  19670902.262 1 103371287.847 1       110.502          44.000    19670908.475 1  80549080.064 1        86.150          43.000  
G24  21307771.593 1 111973097.478 1     -4155.417          43.000    21307782.216 1  87251804.825 2     -3237.936          39.000  
G25  21532130.816 1 113152116.563 1      1646.048          45.000    21532143.805 1  88170528.326 2      1282.696          39.000  
G32  22844380.880 1 120048035.543 2       -35.223          41.000    22844389.985 4                       -27.301          25.000  
R 1  22001573.800 2 117611024.625 3       598.459          36.000    22001586.272 4               6       465.208          28.000  
R 8  20613276.605 1 110383162.604 1      -539.655          45.000    20613284.379 2  85853604.386 4      -419.618          34.000  
R10  19918886.767 1 106178878.083 2     -2913.739          40.000                                                                  
R11  19112081.493 1 102129163.162 1      1198.468          50.000    19112084.875 1  79433812.599 1       932.165          44.000  
R23  20730483.140 1 110894105.027 1     -3437.864          44.000                                                                  
E 9  24044982.669 1 126357237.539 2     -1532.101          40.000    24044998.953 1  96819250.793 5     -1174.251          32.000  
E11  23597718.264 1 124006857.948 2     -3702.668          40.000                                                                  
E24  24788403.137 1 130263937.691 1      1190.371          45.000    24788422.578 2  99812701.384 2       911.860          39.000  
E36  23382863.467 1 122877781.076 1     -1775.234          45.000    23382881.388 2  94153184.314 2     -1360.188          40.000  
C14  22633165.978 1 117856837.223 1       426.816          45.000    22633174.341 1  91134415.010 2       330.303          40.000  
C24  21160404.717 1 110187783.169 1       715.962          48.000                                                                  
> 2023  9 15 18 49 39.5970000  0 17                     
G10  21586227.249 1 113436390.124 1      1747.781          46.000    21586236.194 1  88392030.991 2      1361.813          39.000  
G18  20496855.700 1 107711698.076 1     -3323.822          46.000    20496863.516 1  83931223.984 1     -2590.048          42.000  
G23  19670898.043 1 103371265.764 1       110.264          44.000    19670904.280 1  80549062.845 1        86.077          43.000  
G24  21307929.733 1 111973928.529 1     -4155.073          43.000    21307940.351 1  87252452.392 2     -3238.046          39.000  
G25  21532068.167 1 113151787.359 1      1646.002          45.000    21532081.172 1  88170271.797 2      1282.862          39.000  
G32  22844382.203 1 120048042.560 2       -35.205          41.000    22844391.350 4                       -27.631          25.000  
R 1  22001551.404 2 117610904.988 3       598.273          36.000    22001563.888 4               6       465.088          28.000  
R 8  20613296.813 1 110383270.548 1      -539.790          45.000    20613304.494 2  85853688.316 4      -419.257          34.000  
R10  19918996.077 1 106179460.829 2     -2913.812          39.000                                                                  
R11  19112036.646 1 102128923.481 1      1198.224          50.000    19112040.042 1  79433626.188 1       932.043          44.000  
R23  20730611.689 1 110894792.592 1     -3437.856          44.000                                                                  
E 9  24045041.075 1 126357544.001 2     -1532.451          40.000    24045057.234 1  96819485.615 5     -1174.727          31.000  
E11  23597859.210 1 124007598.534 2     -3703.205          40.000                                                                  
E24  24788357.833 1 130263699.647 1      1190.008          45.000    24788377.314 2  99812518.982 2       912.150          39.000  
E36  23382930.989 1 122878136.142 1     -1775.473          45.000    23382948.697 2  94153456.375 2     -1360.350          40.000  
C14  22633149.615 1 117856751.838 1       426.713          45.000    22633157.916 1  91134348.992 2       330.121          40.000  
C24  21160377.187 1 110187639.993 1       715.593          48.000                                                                  
> 2023  9 15 18 49 39.7970000  0 17                     
G10  21586160.703 1 113436040.518 1      1747.992          46.000    21586169.638 1  88391758.580 2      1361.835          39.000  
G18  20496982.231 1 107712362.812 1     -3323.872          47.000    20496990.032 1  83931741.950 1     -2590.098          42.000  
G23  19670893.896 1 103371243.694 1       110.173          44.000    19670900.102 1  80549045.662 1        85.987          43.000  
G24  21308087.912 1 111974759.611 1     -4155.401          43.000    21308098.479 1  87253099.998 2     -3237.938          39.000  
G25  21532005.481 1 113151458.153 1      1645.925          45.000    21532018.573 1  88170015.287 2      1282.541          39.000  
G32  22844383.488 1 120048049.566 2       -34.985          41.000    22844392.685 4                       -27.429          25.000  
R 1  22001529.038 2 117610785.338 3       597.903          36.000    22001541.480 4               7       464.876          28.000  
R 8  20613317.039 1 110383378.486 1      -539.802          45.000    20613324.651 2  85853772.291 4      -420.126          34.000  
R10  19919105.403 1 106180043.618 2     -2914.093          39.000                                                                  
R11  19111991.806 1 102128683.830 1      1198.052          50.000    19111995.194 1  79433439.800 1       931.574          44.000  
R23  20730740.218 1 110895480.188 1     -3437.989          44.000                                                                  
E 9  24045099.444 1 126357850.442 2     -1532.646          40.000    24045115.587 1  96819720.353 5     -1173.125          31.000  
E11  23598000.135 1 124008339.092 2     -3702.981          40.000                                                                  
E24  24788312.438 1 130263461.590 1      1190.124          45.000    24788330.939 2  99812336.578 2       911.944          39.000  
E36  23382998.578 1 122878491.232 1     -1775.696          45.000    23383016.190 2  94153728.462 2     -1360.477          40.000  
C14  22633133.197 1 117856666.451 1       426.676          45.000    22633141.525 1  91134282.955 2       330.417          40.000  
C24  21160349.723 1 110187496.824 1       715.630          48.000                                                                  
> 2023  9 15 18 49 39.9970000  0 17                     
G10  21586094.123 1 113435690.924 1      1747.959          46.000    21586103.164 1  88391486.147 2      1362.291          39.000  
G18  20497108.708 1 107713027.563 1     -3323.786          47.000    20497116.530 1  83932259.932 2     -2589.772          42.000  
G23  19670889.702 1 103371221.636 1       110.346          44.000    19670895.895 1  80549028.485 1        85.598          43.000  
G24  21308246.085 1 111975590.690 1     -4155.338          43.000    21308256.613 1  87253747.585 2     -3237.927          39.000  
G25  21531942.802 1 113151128.956 1      1646.053          45.000    21531955.897 1  88169758.776 2      1282.429          39.000  
G32  22844384.815 1 120048056.599 2       -35.132          41.000    22844394.060 4                       -27.460          25.000  
R 1  22001506.660 2 117610665.659 3       598.335          36.000    22001519.103 4                       465.366          28.000  
R 8  20613337.205 1 110383486.431 1      -539.465          45.000    20613344.813 2  85853856.250 4      -419.905          33.000  
R10  19919214.725 1 106180626.415 2     -2914.020          39.000                                                                  
R11  19111946.944 1 102128444.211 1      1198.126          50.000    19111950.357 1  79433253.421 1       931.794          44.000  
R23  20730868.756 1 110896167.813 1     -3438.208          44.000                                                                  
E 9  24045157.689 1 126358156.872 2     -1532.064          40.000    24045173.997 1  96819955.194 5     -1173.571          31.000  
E11  23598141.006 1 124009079.691 2     -3702.967          40.000                                                                  
E24  24788267.177 1 130263223.537 1      1190.425          45.000    24788286.073 2  99812154.185 2       912.072          39.000  
E36  23383066.140 1 122878846.322 1     -1775.460          46.000    23383083.762 1  94154000.544 2     -1360.529          40.000  
C14  22633116.822 1 117856581.051 1       426.908          45.000    22633125.108 1  91134216.934 2       330.225          40.000  
C24  21160322.200 1 110187353.680 1       715.789          48.000                                                                  
> 2023  9 15 18 49 40.1970000  0 17                     
G10  21586027.548 1 113435341.308 1      1748.040          46.000    21586036.616 1  88391213.733 2      1362.101          40.000  
G18  20497235.213 1 107713692.304 1     -3323.733          46.000    20497243.062 1  83932777.927 2     -2589.920          42.000  
G23  19670885.528 1 103371199.573 1       110.388          44.000    19670891.712 1  80549011.274 1        86.041          43.000  
G24  21308404.230 1 111976421.758 1     -4155.248          43.000    21308414.722 1  87254395.153 2     -3237.622          39.000  
G25  21531880.192 1 113150799.750 1      1646.043          45.000    21531893.272 1  88169502.245 2      1282.498          39.000  
G32  22844386.146 1 120048063.577 2       -34.967          41.000    22844395.374 4                       -26.794          26.000  
R 1  22001484.240 2 117610545.952 3       599.026          36.000    22001496.697 4                       465.186          28.000  
R 8  20613357.341 1 110383594.372 1      -539.697          45.000    20613364.944 2  85853940.194 4      -419.517          33.000  
R10  19919324.066 1 106181209.256 2     -2914.465          39.000                                                                  
R11  19111902.099 1 102128204.602 1      1198.047          50.000    19111905.540 1  79433067.052 1       932.057          44.000  
R23  20730997.320 1 110896855.414 1     -3438.062          44.000                                                                  
E 9  24045216.081 1 126358463.295 2     -1532.113          40.000    24045232.321 1  96820189.992 5     -1173.771          31.000  
E11  23598281.978 1 124009820.227 2     -3702.706          40.000                                                                  
E24  24788221.799 1 130262985.474 1      1190.381          45.000    24788241.060 1  99811971.774 2       912.003          39.000  
E36  23383133.757 1 122879201.423 1     -1775.523          46.000    23383151.641 1  94154272.632 2     -1360.499          40.000  
C14  22633100.402 1 117856495.638 1       427.155          45.000    22633108.691 1  91134150.872 2       330.358          40.000  
C24  21160294.700 1 110187210.538 1       715.704          48.000                                                                  
> 2023  9 15 18 49 40.3970000  0 17                     
G10  21585961.030 1 113434991.679 1      1747.927          46.000    21585970.096 1  88390941.289 2      1362.046          40.000  
G18  20497361.740 1 107714357.048 1     -3323.779          46.000    20497369.554 1  83933295.914 2     -2590.292          42.000  
G23  19670881.310 1 103371177.508 1       110.340          44.000    19670887.487 1  80548994.093 1        85.721          43.000  
G24  21308562.338 1 111977252.818 1     -4155.451          43.000    21308572.845 1  87255042.746 2     -3237.866          39.000  
G25  21531817.487 1 113150470.520 1      1645.960          45.000    21531830.636 1  88169245.696 2      1282.666          39.000  
G32  22844387.460 1 120048070.568 2       -35.315          41.000    22844396.655 4                       -27.692          26.000  
R 1  22001461.865 2 117610426.248 3       598.363          36.000    22001474.295 4               7       465.523          28.000  
R 8  20613377.502 1 110383702.265 1      -539.777          45.000    20613385.063 2  85854024.106 5      -419.905          33.000  
R10  19919433.366 1 106181792.073 2     -2914.465          40.000                                                                  
R11  19111857.260 1 102127964.995 1      1197.698          50.000    19111860.736 1  79432880.706 1       931.505          44.000  
R23  20731125.809 1 110897543.022 1     -3438.427          44.000                                                                  
E 9  24045274.337 1 126358769.680 2     -1532.064          40.000    24045290.539 1  96820424.750 5     -1174.023          32.000  
E11  23598422.911 1 124010560.787 2     -3702.763          40.000                                                                  
E24  24788176.483 1 130262747.388 1      1190.344          45.000    24788195.780 1  99811789.338 2       912.010          39.000  
E36  23383201.316 1 122879556.512 1     -1775.605          46.000    23383219.012 1  94154544.712 2     -1360.461          40.000  
C14  22633083.906 1 117856410.200 1       426.975          45.000    22633092.300 1  91134084.826 2       330.194          40.000  
C24  21160267.161 1 110187067.382 1       715.502          48.000                                                                  
> 2023  9 15 18 49 40.5970000  0 17                     
G10  21585894.525 1 113434642.061 1      1748.100          46.000    21585903.570 1  88390668.865 2      1362.041          40.000  
G18  20497488.274 1 107715021.833 1     -3323.851          46.000    20497496.039 1  83933813.923 1     -2590.250          42.000  
G23  19670877.136 1 103371155.479 1       110.118          44.000    19670883.331 1  80548976.923 1        85.753          43.000  
G24  21308720.457 1 111978083.900 1     -4155.417          43.000    21308730.957 1  87255690.342 2     -3238.051          39.000  
G25  21531754.871 1 113150141.323 1      1646.005          45.000    21531768.000 1  88168989.179 2      1282.663          39.000  
G32  22844388.703 1 120048077.552 2       -35.284          40.000    22844397.866 4                       -27.087          26.000  
R 1  22001439.461 2 117610306.542 3       598.515          36.000    22001451.827 4                       465.578          28.000  
R 8  20613397.633 1 110383810.179 1      -539.653          45.000    20613405.143 2  85854108.017 5      -419.349          33.000  
R10  19919542.658 1 106182374.947 2     -2914.209          40.000                                                                  
R11  19111812.424 1 102127725.439 1      1197.740          50.000    19111815.866 1  79432694.373 1       931.469          44.000  
R23  20731254.310 1 110898230.657 1     -3438.141          44.000                                                                  
E 9  24045332.626 1 126359076.084 2     -1532.143          40.000    24045348.791 1               6     -1173.340          32.000  
E11  23598563.915 1 124011301.355 2     -3702.916          40.000                                                                  
E24  24788131.145 1 130262509.321 1      1190.403          45.000    24788150.627 1  99811606.931 2       911.999          39.000  
E36  23383268.891 1 122879911.647 1     -1775.710          46.000    23383286.623 1  94154816.832 2     -1360.609          40.000  
C14  22633067.524 1 117856324.775 1       427.062          45.000    22633075.889 1  91134018.764 2       330.149          40.000  
C24  21160239.717 1 110186924.273 1       715.420          48.000                                                                  
> 2023  9 15 18 49 40.7970000  0 17                     
G10  21585827.989 1 113434292.456 1      1748.124          46.000    21585837.038 1  88390396.437 2      1362.327          40.000  
G18  20497614.784 1 107715686.638 1     -3324.027          46.000    20497622.535 1  83934331.947 1     -2590.010          42.000  
G23  19670872.949 1 103371133.463 1       110.175          44.000    19670879.138 1  80548959.768 1        85.828          43.000  
G24  21308878.603 1 111978914.987 1     -4155.429          43.000    21308889.155 1  87256337.956 2     -3238.316          39.000  
G25  21531692.197 1 113149812.132 1      1645.966          45.000    21531705.333 1  88168732.663 2      1282.656          39.000  
G32  22844390.038 1 120048084.538 2       -34.967          40.000    22844399.249 4                       -27.209          26.000  
R 1  22001417.046 2 117610186.821 3       598.634          36.000    22001429.502 4                       465.331          28.000  
R 8  20613417.817 1 110383918.087 1      -539.531          45.000    20613425.299 2  85854191.979 5      -419.605          33.000  
R10  19919652.059 1 106182957.886 2     -2914.789          40.000                                                                  
R11  19111767.601 1 102127485.912 1      1197.537          50.000    19111771.055 1  79432508.069 1       931.399          44.000  
R23  20731382.900 1 110898918.323 1     -3438.288          44.000                                                                  
E 9  24045390.985 1 126359382.489 2     -1531.981          40.000    24045407.068 1               6     -1173.261          32.000  
E11  23598705.002 1 124012041.928 2     -3702.753          40.000                                                                  
E24  24788085.854 1 130262271.265 1      1190.294          45.000    24788105.158 1  99811424.532 2       911.946          39.000  
E36  23383336.323 1 122880266.804 1     -1775.881          46.000    23383354.243 1  94155088.954 2     -1360.611          40.000  
C14  22633051.128 1 117856239.354 1       427.118          45.000    22633059.473 1  91133952.698 2       330.396          40.000  
C24  21160212.258 1 110186781.164 1       715.527          48.000                                                                  
> 2023  9 15 18 49 40.9970000  0 17                     
G10  21585761.458 1 113433942.853 1      1748.067          46.000    21585770.541 1  88390124.031 2      1361.949          40.000  
G18  20497741.321 1 107716351.463 1     -3324.229          47.000    20497749.049 1  83934849.997 1     -2590.463          42.000  
G23  19670868.789 1 103371111.474 1       109.973          44.000    19670874.947 1  80548942.624 1        85.779          43.000  
G24  21309036.726 1 111979746.085 1     -4155.508          43.000    21309047.329 1  87256985.552 2     -3238.036          39.000  
G25  21531629.538 1 113149482.934 1      1646.068          45.000    21531642.671 1  88168476.161 2      1282.581          39.000  
G32  22844391.367 1 120048091.540 2       -34.949          40.000    22844400.544 4                       -27.393          26.000  
R 1  22001394.673 2 117610067.140 3       598.083          36.000    22001407.119 4               7       466.050          28.000  
R 8  20613437.949 1 110384025.997 1      -539.330          45.000    20613445.412 2  85854275.895 4      -418.998          33.000  
R10  19919761.452 1 106183540.825 2     -2914.685          40.000                                                                  
R11  19111722.776 1 102127246.415 1      1197.308          50.000    19111726.255 1  79432321.802 1       931.158          44.000  
R23  20731511.445 1 110899606.003 1     -3438.410          44.000                                                                  
E 9  24045449.239 1 126359688.893 2     -1532.153          40.000    24045465.372 1  96821129.062 5     -1173.365          32.000  
E11  23598846.010 1 124012782.541 2     -3703.095          40.000                                                                  
E24  24788040.551 1 130262033.221 1      1190.386          45.000    24788059.862 1  99811242.129 2       912.253          39.000  
E36  23383403.781 1 122880621.963 1     -1775.925          46.000    23383421.756 1  94155361.105 2     -1360.756          40.000  
C14  22633034.720 1 117856153.931 1       427.186          45.000    22633043.053 1  91133886.652 2       330.391          40.000  
C24  21160184.836 1 110186638.090 1       715.385          48.000                                                                  
> 2023  9 15 18 49 41.1970000  0 17                     
G10  21585694.966 1 113433593.235 1      1748.031          46.000    21585703.998 1  88389851.596 2      1361.837          39.000  
G18  20497867.817 1 107717016.281 1     -3324.282          47.000    20497875.567 1  83935368.014 1     -2590.114          42.000  
G23  19670864.629 1 103371089.474 1       109.799          44.000    19670870.742 1  80548925.496 1        85.471          43.000  
G24  21309194.888 1 111980577.183 1     -4155.641          43.000    21309205.496 1  87257633.155 2     -3238.200          39.000  
G25  21531566.925 1 113149153.745 1      1645.807          45.000    21531580.031 1  88168219.643 2      1282.474          39.000  
G32  22844392.701 1 120048098.519 2       -35.162          40.000    22844401.861 2                       -26.892          27.000  
R 1  22001372.258 2 117609947.335 4       599.083          36.000    22001384.730 4               7       465.434          28.000  
R 8  20613458.082 1 110384133.898 1      -539.647          45.000    20613465.461 2  85854359.824 4      -419.651          33.000  
R10  19919870.825 1 106184123.794 2     -2915.027          40.000                                                                  
R11  19111677.924 1 102127006.915 1      1197.314          50.000    19111681.411 1  79432135.530 1       931.103          44.000  
R23  20731639.972 1 110900293.694 1     -3438.755          44.000                                                                  
E 9  24045507.562 1 126359995.274 2     -1531.843          40.000    24045523.734 1  96821363.872 5     -1174.315          32.000  
E11  23598986.877 1 124013523.099 3     -3702.929          40.000                                                                  
E24  24787995.338 1 130261795.162 1      1190.146          44.000    24788014.481 1  99811059.718 2       911.827          39.000  
E36  23383471.414 1 122880977.130 1     -1775.958          46.000    23383489.261 1  94155633.250 2     -1360.790          40.000  
C14  22633018.265 1 117856068.486 1       427.141          45.000    22633026.633 1  91133820.579 2       330.346          40.000  
C24  21160157.349 1 110186495.013 1       715.145          48.000                                                                  
> 2023  9 15 18 49 41.3970000  0 17                     
G10  21585628.416 1 113433243.647 1      1747.913          46.000    21585637.455 1  88389579.173 2      1362.148          39.000  
G18  20497994.371 1 107717681.151 1     -3324.465          47.000    20498002.151 1  83935886.105 2     -2590.222          42.000  
G23  19670860.401 1 103371067.517 1       109.685          44.000    19670866.578 1  80548908.369 1        85.626          43.000  
G24  21309353.066 1 111981408.300 1     -4155.625          43.000    21309363.615 1  87258280.784 2     -3238.303          39.000  
G25  21531504.303 1 113148824.572 1      1645.951          45.000    21531517.403 1  88167963.158 2      1282.303          39.000  
G32  22844394.023 1 120048105.520 2       -35.083          40.000    22844403.174 2                       -27.625          27.000  
R 1  22001349.881 2 117609827.643 3       598.531          36.000    22001362.271 4               7       465.625          28.000  
R 8  20613478.258 1 110384241.809 1      -539.462          45.000    20613485.586 2  85854443.786 4      -419.751          33.000  
R10  19919980.186 1 106184706.808 2     -2915.234          40.000                                                                  
R11  19111633.174 1 102126767.479 1      1197.204          50.000    19111636.643 1  79431949.308 1       930.934          44.000  
R23  20731768.522 1 110900981.405 1     -3438.452          44.000                                                                  
E 9  24045565.898 1 126360301.697 2     -1532.167          40.000    24045582.083 1  96821598.611 5     -1173.669          32.000  
E11  23599127.844 1 124014263.705 2     -3702.905          40.000                                                                  
E24  24787950.007 1 130261557.124 1      1190.124          44.000    24787969.522 1  99810877.316 2       912.249          39.000  
E36  23383538.959 1 122881332.341 1     -1776.162          45.000    23383556.828 1  94155905.422 2     -1361.010          40.000  
C14  22633001.877 1 117855983.062 1       427.056          45.000    22633010.225 1  91133754.542 2       330.083          40.000  
C24  21160129.894 1 110186351.970 1       715.220          48.000                                                                  
> 2023  9 15 18 49 41.5970000  0 17                     
G10  21585561.891 1 113432894.011 1      1748.091          46.000    21585570.902 1  88389306.745 2      1362.216          39.000  
G18  20498120.921 1 107718345.979 1     -3324.289          47.000    20498128.685 1  83936404.160 2     -2590.471          42.000  
G23  19670856.208 1 103371045.528 1       109.937          44.000    19670862.457 1  80548891.244 1        85.774          43.000  
G24  21309511.222 1 111982239.379 1     -4155.367          43.000    21309521.782 1  87258928.381 2     -3238.028          39.000  
G25  21531441.693 1 113148495.372 1      1646.091          45.000    21531454.750 1  88167706.640 2      1282.333          39.000  
G32  22844395.304 1 120048112.468 2       -34.766          40.000    22844404.598 2                       -26.978          27.000  
R 1  22001327.470 2 117609707.842 4       598.997          35.000    22001339.731 4               7       465.929          28.000  
R 8  20613498.361 1 110384349.688 1      -539.435          45.000    20613505.668 2  85854527.691 4      -419.368          33.000  
R10  19920089.604 1 106185289.823 2     -2915.191          40.000                                                                  
R11  19111588.311 1 102126528.032 1      1197.171          50.000    19111591.859 1  79431763.066 1       931.016          44.000  
R23  20731897.114 1 110901669.120 1     -3438.513          44.000                                                                  
E 9  24045624.185 1 126360608.044 2     -1531.854          40.000    24045640.319 1  96821833.363 5     -1173.398          32.000  
E11  23599268.796 1 124015004.279 2     -3702.757          40.000                                                                  
E24  24787904.647 1 130261319.052 1      1190.337          44.000    24787924.150 1  99810694.913 2       911.808          39.000  
E36  23383606.508 1 122881687.511 1     -1775.791          45.000    23383624.663 1  94156177.574 2     -1360.842          40.000  
C14  22632985.492 1 117855897.588 1       427.534          45.000    22632993.813 1  91133688.435 2       330.271          40.000  
C24  21160102.447 1 110186208.912 1       715.126          48.000                                                                  
> 2023  9 15 18 49 41.7970000  0 17                     
G10  21585495.313 1 113432544.397 1      1748.065          46.000    21585504.366 1  88389034.292 2      1362.604          39.000  
G18  20498247.421 1 107719010.854 1     -3324.324          47.000    20498255.244 1  83936922.230 1     -2590.272          42.000  
G23  19670852.029 1 103371023.582 1       109.580          44.000    19670858.297 1  80548874.149 1        85.386          43.000  
G24  21309669.389 1 111983070.507 1     -4155.432          43.000    21309679.979 1  87259576.016 2     -3238.229          39.000  
G25  21531379.032 1 113148166.203 1      1645.791          45.000    21531392.065 1  88167450.132 2      1282.440          39.000  
G32  22844396.614 1 120048119.443 2       -34.845          40.000    22844405.906 2                       -27.301          27.000  
R 1  22001305.014 2 117609588.118 3       598.227          35.000    22001317.328 4               7       465.814          28.000  
R 8  20613518.484 1 110384457.578 1      -539.465          45.000    20613525.814 2  85854611.584 4      -419.718          33.000  
R10  19920199.017 1 106185872.879 2     -2915.460          40.000                                                                  
R11  19111543.517 1 102126288.629 1      1196.946          50.000    19111547.047 1  79431576.854 1       931.027          44.000  
R23  20732025.704 1 110902356.868 1     -3438.683          44.000                                                                  
E 9  24045682.463 1 126360914.422 2     -1531.827          40.000    24045698.657 1  96822068.121 5     -1173.787          32.000  
E11  23599409.767 1 124015744.871 2     -3702.801          40.000                                                                  
E24  24787859.391 1 130261081.018 1      1190.139          44.000    24787878.667 1  99810512.511 2       911.959          39.000  
E36  23383674.234 1 122882042.745 1     -1776.205          45.000    23383692.308 1  94156449.761 2     -1361.183          40.000  
C14  22632969.076 1 117855812.142 1       427.345          45.000    22632977.403 1  91133622.356 2       330.618          40.000  
C24  21160074.995 1 110186065.873 1       715.125          48.000                                                                  
> 2023  9 15 18 49 41.9970000  0 17                     
G10  21585428.758 1 113432194.787 1      1748.112          46.000    21585437.858 1  88388761.894 2      1362.101          39.000  
G18  20498373.945 1 107719675.741 1     -3324.542          47.000    20498381.790 1  83937440.332 2     -2590.687          42.000  
G23  19670847.854 1 103371001.644 1       109.532          44.000    19670854.110 1  80548857.040 2        85.554          43.000  
G24  21309827.546 1 111983901.626 1     -4155.741          43.000    21309838.110 1  87260223.634 2     -3238.146          39.000  
G25  21531316.331 1 113147837.015 1      1645.786          45.000    21531329.412 1  88167193.619 2      1282.674          39.000  
G32  22844397.964 1 120048126.425 2       -34.924          40.000    22844407.193 2                       -27.063          27.000  
R 1  22001282.582 2 117609468.293 3       598.971          35.000    22001294.857 4               7       465.482          28.000  
R 8  20613538.652 1 110384565.455 1      -539.612          45.000    20613545.947 2  85854695.499 5      -419.490          33.000  
R10  19920308.407 1 106186455.937 2     -2915.332          40.000                                                                  
R11  19111498.700 1 102126049.243 1      1196.829          49.000    19111502.233 1  79431390.672 1       930.875          44.000  
R23  20732154.278 1 110903044.623 1     -3438.893          44.000                                                                  
E 9  24045740.631 1 126361220.771 2     -1531.855          40.000    24045756.895 1  96822302.860 5     -1173.660          32.000  
E11  23599550.745 1 124016485.462 2     -3702.949          40.000                                                                  
E24  24787814.139 1 130260842.958 1      1190.171          44.000    24787833.428 1  99810330.093 2       912.033          39.000  
E36  23383741.885 1 122882397.967 1     -1776.149          45.000    23383759.979 1  94156721.938 2     -1360.897          40.000  
C14  22632952.665 1 117855726.680 1       427.251          45.000    22632960.981 1  91133556.269 2       330.351          40.000  
C24  21160047.465 1 110185922.854 1       714.983          48.000                                                                  
> 2023  9 15 18 49 42.1970000  0 17                     
G10  21585362.261 1 113431845.179 1      1747.946          46.000    21585371.352 1  88388489.449 2      1362.161          39.000  
G18  20498500.483 1 107720340.640 1     -3324.669          47.000    20498508.359 1  83937958.418 2     -2590.662          42.000  
G23  19670843.700 1 103370979.715 1       109.483          44.000    19670849.933 1  80548839.955 2        85.362          42.000  
G24  21309985.680 1 111984732.762 1     -4155.817          43.000    21309996.289 1  87260871.279 2     -3238.374          39.000  
G25  21531253.656 1 113147507.831 1      1645.690          45.000    21531266.756 1  88166937.118 2      1282.286          39.000  
G32  22844399.302 1 120048133.390 2       -34.912          40.000    22844408.507 2                       -26.740          27.000  
R 1  22001260.183 2 117609348.531 3       598.981          35.000    22001272.366 4               7       466.192          28.000  
R 8  20613558.792 1 110384673.330 1      -539.512          45.000    20613566.089 2  85854779.388 5      -419.362          33.000  
R10  19920417.806 1 106187039.065 2     -2915.600          40.000                                                                  
R11  19111453.930 1 102125809.879 1      1196.675          49.000    19111457.447 1  79431204.498 1       930.725          44.000  
R23  20732282.954 1 110903732.400 1     -3439.184          44.000                                                                  
E 9  24045799.026 1 126361527.143 2     -1531.725          40.000    24045815.168 1  96822537.604 5     -1173.382          32.000  
E11  23599691.663 1 124017226.060 3     -3703.348          40.000                                                                  
E24  24787768.821 1 130260604.898 1      1190.186          44.000    24787788.145 1  99810147.699 2       911.964          39.000  
E36  23383809.456 1 122882753.222 1     -1776.483          45.000    23383827.626 1  94156994.152 2     -1361.221          40.000  
C14  22632936.297 1 117855641.224 1       427.258          45.000    22632944.573 1  91133490.195 2       330.290          40.000  
C24  21160019.986 1 110185779.848 1       714.904          48.000                                                                  
> 2023  9 15 18 49 42.3970000  0 17                     
G10  21585295.692 1 113431495.564 1      1748.070          46.000    21585304.784 1  88388217.026 2      1362.426          39.000  
G18  20498627.025 1 107721005.546 1     -3324.557          47.000    20498634.929 1  83938476.534 2     -2590.536          42.000  
G23  19670839.551 1 103370957.802 1       109.576          44.000    19670845.718 1  80548822.879 2        85.438          43.000  
G24  21310143.891 1 111985563.897 1     -4155.824          43.000    21310154.431 1  87261518.900 2     -3238.240          39.000  
G25  21531191.006 1 113147178.664 1      1645.791          45.000    21531204.131 1  88166680.635 2      1282.348          40.000  
G32  22844400.657 1 120048140.364 2       -35.010          40.000    22844409.790 2                       -27.399          27.000  
R 1  22001237.759 2 117609228.694 3       598.822          35.000    22001249.945 4               7       465.987          28.000  
R 8  20613578.925 1 110384781.195 1      -539.415          45.000    20613586.164 2  85854863.288 5      -419.657          33.000  
R10  19920527.180 1 106187622.211 2     -2916.180          39.000                                                                  
R11  19111409.133 1 102125570.548 1      1196.624          49.000    19111412.683 1  79431018.346 1       930.938          44.000  
R23  20732411.567 1 110904420.176 1     -3439.036          44.000                                                                  
E 9  24045857.322 1 126361833.489 2     -1531.832          40.000    24045873.497 1  96822772.363 5     -1174.337          32.000  
E11  23599832.595 1 124017966.656 3     -3703.050          40.000                                                                  
E24  24787723.366 1 130260366.848 1      1190.311          44.000    24787742.877 1  99809965.301 2       912.075          39.000  
E36  23383877.080 1 122883108.477 1     -1776.247          45.000    23383895.269 1  94157266.356 2     -1361.118          40.000  
C14  22632919.843 1 117855555.749 1       427.325          45.000    22632928.155 1  91133424.107 2       330.445          41.000  
C24  21159992.541 1 110185636.856 1       714.945          48.000                                                                  
> 2023  9 15 18 49 42.5970000  0 17                     
G10  21585229.177 1 113431145.952 1      1748.064          46.000    21585238.212 1  88387944.590 2      1362.249          39.000  
G18  20498753.550 1 107721670.476 1     -3324.701          47.000    20498761.521 1  83938994.660 2     -2590.596          42.000  
G23  19670835.342 1 103370935.890 1       109.601          44.000    19670841.577 1  80548805.822 1        85.260          43.000  
G24  21310302.048 1 111986395.040 1     -4155.915          43.000    21310312.609 1  87262166.558 2     -3238.484          39.000  
G25  21531128.392 1 113146849.486 1      1645.881          45.000    21531141.488 1  88166424.135 2      1282.326          39.000  
G32  22844401.967 1 120048147.330 2       -34.998          40.000    22844411.157 2                       -26.868          27.000  
R 1  22001215.311 2 117609108.862 3       599.882          35.000    22001227.480 4               7       466.006          28.000  
R 8  20613599.101 1 110384889.054 1      -539.360          45.000    20613606.306 2  85854947.172 4      -419.157          33.000  
R10  19920636.540 1 106188205.356 2     -2915.747          39.000                                                                  
R11  19111364.379 1 102125331.240 1      1196.400          49.000    19111367.894 1  79430832.227 1       930.424          44.000  
R23  20732540.158 1 110905107.970 1     -3439.016          44.000                                                                  
E 9  24045915.745 1 126362139.833 2     -1531.823          40.000    24045931.787 1  96823007.051 5     -1173.209          32.000  
E11  23599973.485 1 124018707.230 2     -3702.875          40.000                                                                  
E24  24787678.098 1 130260128.793 1      1190.082          44.000    24787697.598 1  99809782.899 2       911.774          39.000  
E36  23383944.745 1 122883463.755 1     -1776.403          45.000    23383962.886 1  94157538.587 2     -1361.309          40.000  
C14  22632903.421 1 117855470.278 1       427.263          45.000    22632911.736 1  91133358.011 2       330.401          41.000  
C24  21159965.069 1 110185493.885 1       714.831          48.000                                                                  
> 2023  9 15 18 49 42.7970000  0 17                     
G10  21585162.678 1 113430796.357 1      1747.773          46.000    21585171.687 1  88387672.187 2      1362.183          39.000  
G18  20498880.084 1 107722335.428 1     -3324.891          47.000    20498888.092 1  83939512.806 2     -2590.856          42.000  
G23  19670831.165 1 103370914.016 1       109.357          44.000    19670837.447 1  80548788.763 1        85.216          43.000  
G24  21310460.206 1 111987226.195 1     -4155.911          43.000    21310470.790 1  87262814.198 2     -3238.526          39.000  
G25  21531065.736 1 113146520.332 1      1645.627          44.000    21531078.847 1  88166167.646 2      1282.409          39.000  
G32  22844403.290 1 120048154.322 2       -35.297          40.000    22844412.549 2                       -27.063          27.000  
R 1  22001192.878 2 117608989.097 4       599.140          34.000    22001205.041 4               7       465.892          28.000  
R 8  20613619.202 1 110384996.930 1      -539.497          45.000    20613626.345 2  85855031.086 5      -419.578          33.000  
R10  19920746.002 1 106188788.579 2     -2916.437          39.000                                                                  
R11  19111319.641 1 102125091.965 1      1196.052          49.000    19111323.125 1  79430646.112 1       930.432          44.000  
R23  20732668.724 1 110905795.793 1     -3439.140          44.000                                                                  
E 9  24045974.032 1 126362446.180 2     -1531.959          40.000    24045990.109 1  96823241.810 5     -1173.648          32.000  
E11  23600114.409 1 124019447.852 3     -3703.116          40.000                                                                  
E24  24787632.779 1 130259890.751 1      1190.001          45.000    24787652.314 1  99809600.502 2       911.753          39.000  
E36  23384012.384 1 122883819.061 1     -1776.508          45.000    23384030.467 1  94157810.822 2     -1361.316          40.000  
C14  22632887.018 1 117855384.806 1       427.109          45.000    22632895.320 1  91133291.920 2       330.104          41.000  
C24  21159937.621 1 110185350.930 1       714.712          48.000                                                                  
> 2023  9 15 18 49 42.9970000  0 17                     
G10  21585096.131 1 113430446.739 1      1748.103          46.000    21585105.154 1  88387399.777 2      1361.787          39.000  
G18  20499006.666 1 107723000.387 1     -3324.768          47.000    20499014.600 1  83940030.962 1     -2590.751          42.000  
G23  19670826.976 1 103370892.139 1       109.436          44.000    19670833.323 1  80548771.720 1        85.179          42.000  
G24  21310618.390 1 111988057.360 1     -4155.719          43.000    21310628.917 1  87263461.853 2     -3238.221          39.000  
G25  21531003.060 1 113146191.174 1      1645.826          44.000    21531016.251 1  88165911.151 2      1282.574          39.000  
G32  22844404.589 1 120048161.293 2       -35.168          40.000    22844413.891 2                       -27.081          28.000  
R 1  22001170.441 2 117608869.270 4       599.467          34.000    22001182.572 4               7       465.589          28.000  
R 8  20613639.348 1 110385104.795 1      -539.413          45.000    20613646.386 2  85855114.975 4      -419.747          33.000  
R10  19920855.403 1 106189371.791 2     -2916.260          39.000                                                                  
R11  19111274.882 1 102124852.708 1      1196.314          49.000    19111278.376 1  79430460.031 1       930.590          44.000  
R23  20732797.301 1 110906483.633 1     -3439.086          44.000                                                                  
E 9  24046032.404 1 126362752.514 2     -1531.550          40.000    24046048.413 1  96823476.525 5     -1173.458          32.000  
E11  23600255.278 1 124020188.470 3     -3703.020          40.000                                                                  
E24  24787587.454 1 130259652.690 1      1190.338          45.000    24787607.061 1  99809418.099 2       911.918          39.000  
E36  23384079.919 1 122884174.380 1     -1776.551          45.000    23384098.116 1  94158083.064 2     -1361.083          40.000  
C14  22632870.560 1 117855299.321 1       427.478          45.000    22632878.918 1  91133225.822 2       330.363          41.000  
C24  21159910.175 1 110185207.998 1       714.611          48.000                                                                  
> 2023  9 15 18 49 43.1970000  0 17                     
G10  21585029.622 1 113430097.132 1      1748.131          46.000    21585038.645 1  88387127.336 2      1362.269          39.000  
G18  20499133.235 1 107723665.365 1     -3324.966          47.000    20499141.145 1  83940549.119 2     -2590.841          42.000  
G23  19670822.815 1 103370870.279 1       109.351          44.000    19670829.162 1  80548754.691 1        85.249          42.000  
G24  21310776.564 1 111988888.540 2     -4155.898          43.000    21310787.078 1  87264109.532 2     -3238.448          39.000  
G25  21530940.437 1 113145862.017 1      1645.682          45.000    21530953.590 1  88165654.673 2      1282.548          39.000  
G32  22844405.913 1 120048168.245 2       -34.729          40.000    22844415.250 2                       -27.307          28.000  
R 1  22001147.914 2 117608749.440 4       599.169          34.000    22001160.124 4               7       466.274          28.000  
R 8  20613659.444 1 110385212.635 1      -538.953          45.000    20613666.473 2  85855198.829 5      -418.676          33.000  
R10  19920964.846 1 106189955.037 2     -2916.125          39.000                                                                  
R11  19111230.097 1 102124613.484 1      1196.066          49.000    19111233.626 1  79430273.976 1       930.311          44.000  
R23  20732925.872 1 110907171.477 1     -3439.111          45.000                                                                  
E 9  24046090.692 1 126363058.844 2     -1531.513          40.000    24046106.754 1  96823711.274 5     -1173.478          32.000  
E11  23600396.245 1 124020929.087 3     -3703.147          40.000                                                                  
E24  24787542.243 1 130259414.650 1      1190.180          45.000    24787561.807 1  99809235.681 2       912.091          39.000  
E36  23384147.616 1 122884529.704 1     -1776.683          45.000    23384165.657 1  94158355.332 2     -1361.214          40.000  
C14  22632854.113 1 117855213.840 1       427.490          45.000    22632862.504 1  91133159.711 2       330.659          41.000  
C24  21159882.749 1 110185065.068 1       714.693          48.000                                                                  
> 2023  9 15 18 49 43.3970000  0 17                     
G10  21584963.073 1 113429747.548 1      1747.814          46.000    21584972.134 1  88386854.951 2      1361.981          39.000  
G18  20499259.840 1 107724330.387 1     -3325.361          47.000    20499267.719 1  83941067.319 1     -2590.944          42.000  
G23  19670818.624 1 103370848.465 1       108.866          44.000    19670825.041 1  80548737.697 1        84.838          42.000  
G24  21310934.764 1 111989719.744 1     -4156.303          43.000    21310945.274 1  87264757.228 2     -3239.031          39.000  
G25  21530877.809 1 113145532.893 1      1645.490          45.000    21530890.943 1  88165398.219 2      1282.254          39.000  
G32  22844407.203 1 120048175.263 2       -35.156          40.000    22844416.556 2               7       -27.118          28.000  
R 1  22001125.489 2 117608629.598 4       599.198          34.000    22001137.654 4               7       466.156          28.000  
R 8  20613679.621 1 110385320.533 1      -539.462          45.000    20613686.591 2  85855282.811 5      -420.492          33.000  
R10  19921074.295 1 106190538.363 2     -2917.059          39.000                                                                  
R11  19111185.304 1 102124374.313 1      1195.546          49.000    19111188.921 1  79430087.958 1       929.825          44.000  
R23  20733054.518 1 110907859.378 1     -3439.641          45.000                                                                  
E 9  24046148.936 1 126363365.203 2     -1531.910          40.000    24046165.046 1  96823946.000 5     -1173.982          32.000  
E11  23600537.211 1 124021669.737 3     -3703.603          40.000                                                                  
E24  24787496.914 1 130259176.626 1      1189.965          45.000    24787516.475 1  99809053.319 2       911.832          39.000  
E36  23384215.273 1 122884885.075 1     -1777.042          45.000    23384233.288 1  94158627.637 2     -1361.696          40.000  
C14  22632837.734 1 117855128.387 1       427.185          45.000    22632846.103 1  91133093.629 2       330.407          41.000  
C24  21159855.328 1 110184922.190 1       714.146          48.000                                                                  
> 2023  9 15 18 49 43.5970000  0 17                     
G10  21584896.506 1 113429397.964 1      1747.920          46.000    21584905.552 1  88386582.538 2      1362.012          39.000  
G18  20499386.374 1 107724995.409 1     -3325.173          47.000    20499394.267 1  83941585.536 2     -2591.187          42.000  
G23  19670814.483 1 103370826.645 1       109.181          44.000    19670820.873 1  80548720.695 1        85.004          42.000  
G24  21311092.942 1 111990550.936 1     -4155.859          43.000    21311103.462 1  87265404.896 2     -3238.717          39.000  
G25  21530815.158 1 113145203.761 1      1645.640          45.000    21530828.274 1  88165141.745 2      1282.229          39.000  
G32  22844408.517 1 120048182.252 2       -34.753          40.000    22844417.901 2               7       -27.393          28.000  
R 1  22001103.033 2 117608509.739 4       599.371          34.000    22001115.206 4               7       466.086          28.000  
R 8  20613699.750 1 110385428.412 1      -539.468          45.000    20613706.652 2  85855366.710 5      -419.869          32.000  
R10  19921183.739 2 106191121.704 2     -2916.858          39.000                                                                  
R11  19111140.527 1 102124135.162 1      1195.562          49.000    19111144.151 1  79429901.941 1       929.982          44.000  
R23  20733183.077 1 110908547.276 1     -3439.503          45.000                                                                  
E 9  24046207.254 1 126363671.536 2     -1531.535          40.000    24046223.305 1  96824180.739 5     -1173.353          32.000  
E11  23600678.071 1 124022410.366 2     -3703.213          40.000                                                                  
E24  24787451.620 1 130258938.617 1      1189.993          45.000    24787471.188 1  99808870.947 2       911.826          39.000  
E36  23384282.935 1 122885240.458 1     -1776.897          45.000    23384300.829 1  94158899.936 2     -1361.682          40.000  
C14  22632821.340 1 117855042.909 1       427.349          45.000    22632829.662 1  91133027.547 2       330.308          41.000  
C24  21159827.941 1 110184779.310 1       714.326          48.000                                                                  
> 2023  9 15 18 49 43.7970000  0 17                     
G10  21584830.019 1 113429048.361 1      1747.815          46.000    21584838.991 1  88386310.125 2      1361.907          39.000  
G18  20499512.936 1 107725660.439 1     -3325.266          47.000    20499520.808 1  83942103.738 2     -2591.295          42.000  
G23  19670810.327 1 103370804.843 1       108.730          44.000    19670816.715 1  80548703.702 1        84.836          42.000  
G24  21311251.085 1 111991382.142 2     -4156.264          43.000    21311261.589 1  87266052.581 2     -3238.664          39.000  
G25  21530752.558 1 113144874.622 1      1645.540          45.000    21530765.637 1  88164885.275 2      1282.396          39.000  
G32  22844409.862 1 120048189.240 2       -34.998          40.000    22844419.290 2               7       -27.008          28.000  
R 1  22001080.570 2 117608389.865 4       599.769          34.000    22001092.770 4               7       466.349          28.000  
R 8  20613719.910 1 110385536.270 1      -539.479          45.000    20613726.803 2  85855450.610 5      -420.026          33.000  
R10  19921293.180 2 106191705.049 2     -2917.017          39.000                                                                  
R11  19111095.814 1 102123896.020 1      1195.525          49.000    19111099.371 1  79429715.961 1       929.869          44.000  
R23  20733311.711 1 110909235.177 1     -3439.612          45.000                                                                  
E 9  24046265.505 1 126363977.863 2     -1531.460          40.000    24046281.645 1  96824415.459 5     -1174.071          32.000  
E11  23600818.902 1 124023150.990 2     -3703.198          40.000                                                                  
E24  24787406.325 1 130258700.598 1      1189.967          45.000    24787425.889 1  99808688.573 2       911.615          39.000  
E36  23384350.721 1 122885595.835 1     -1777.160          45.000    23384368.429 1  94159172.232 2     -1361.467          40.000  
C14  22632804.931 1 117854957.422 1       427.250          45.000    22632813.253 1  91132961.444 2       330.504          41.000  
C24  21159800.530 1 110184636.440 1       714.111          48.000                                                                  
> 2023  9 15 18 49 43.9970000  0 17                     
G10  21584763.479 1 113428698.749 1      1748.128          46.000    21584772.459 1  88386037.708 2      1362.202          39.000  
G18  20499639.507 1 107726325.490 1     -3325.128          47.000    20499647.309 1  83942621.940 1     -2590.817          42.000  
G23  19670806.168 1 103370783.053 1       108.910          44.000    19670812.525 1  80548686.721 1        84.875          42.000  
G24  21311409.279 1 111992213.334 1     -4155.992          43.000    21311419.803 1  87266700.252 2     -3238.401          39.000  
G25  21530689.947 1 113144545.486 1      1645.801          45.000    21530702.989 1  88164628.809 2      1282.428          39.000  
G32  22844411.171 1 120048196.217 2       -35.052          40.000    22844420.535 2               7       -27.478          29.000  
R 1  22001058.202 2 117608270.033 4       599.186          34.000    22001070.316 4               7       465.805          28.000  
R 8  20613740.088 1 110385644.124 1      -539.067          45.000    20613746.888 2  85855534.485 5      -419.562          33.000  
R10  19921402.593 2 106192288.420 2     -2916.894          39.000                                                                  
R11  19111051.102 1 102123656.905 1      1195.567          49.000    19111054.623 1  79429529.973 1       929.937          44.000  
R23  20733440.296 1 110909923.092 1     -3439.387          45.000                                                                  
E 9  24046323.848 1 126364284.187 2     -1531.483          40.000    24046339.907 1  96824650.167 5     -1173.675          32.000  
E11  23600959.831 1 124023891.619 2     -3702.780          40.000                                                                  
E24  24787360.976 1 130258462.568 1      1190.192          45.000    24787380.647 1  99808506.180 2       912.195          39.000  
E36  23384418.336 1 122885951.226 1     -1776.756          45.000    23384436.028 1  94159444.561 2     -1361.549          40.000  
C14  22632788.520 1 117854871.916 1       427.662          45.000    22632796.831 1  91132895.341 1       330.486          41.000  
C24  21159773.172 1 110184493.579 1       714.345          48.000                                                                  
> 2023  9 15 18 49 44.1970000  0 17                     
G10  21584696.956 1 113428349.148 1      1747.756          46.000    21584705.883 1  88385765.289 2      1361.999          39.000  
G18  20499766.079 1 107726990.554 1     -3325.410          47.000    20499773.866 1  83943140.188 1     -2591.536          42.000  
G23  19670802.014 1 103370761.273 1       108.708          44.000    19670808.412 1  80548669.742 1        84.800          42.000  
G24  21311567.449 1 111993044.532 1     -4156.250          43.000    21311577.994 1  87267347.960 2     -3238.496          39.000  
G25  21530627.288 1 113144216.361 1      1645.478          45.000    21530640.341 1  88164372.353 2      1282.229          39.000  
G32  22844412.462 1 120048203.184 2       -35.175          40.000    22844421.936 2               7       -26.947          29.000  
R 1  22001035.762 2 117608150.151 4       599.049          34.000    22001047.889 4               7       466.720          28.000  
R 8  20613760.238 1 110385751.992 1      -539.729          44.000    20613767.024 2  85855618.366 5      -419.774          33.000  
R10  19921512.070 2 106192871.828 2     -2917.267          39.000                                                                  
R11  19111006.399 1 102123417.812 1      1195.205          49.000    19111009.850 1  79429344.031 1       929.527          44.000  
R23  20733568.956 1 110910611.036 1     -3439.832          45.000                                                                  
E 9  24046382.209 1 126364590.499 2     -1531.629          40.000    24046398.119 1  96824884.860 5     -1173.134          32.000  
E11  23601100.796 1 124024632.267 2     -3703.287          40.000                                                                  
E24  24787315.721 1 130258224.534 1      1190.090          45.000    24787335.314 1  99808323.805 2       911.662          39.000  
E36  23384486.047 1 122886306.640 1     -1777.394          45.000    23384503.721 1  94159716.874 2     -1361.722          40.000  
C14  22632772.099 1 117854786.422 1       427.373          45.000    22632780.393 1  91132829.220 2       330.411          41.000  
C24  21159745.746 1 110184350.730 1       714.044          48.000                                                                  
> 2023  9 15 18 49 44.3970000  0 17                     
G10  21584630.408 1 113427999.532 1      1748.243          46.000    21584639.335 1  88385492.870 2      1362.171          39.000  
G18  20499892.662 1 107727655.622 1     -3325.336          47.000    20499900.417 1  83943658.406 1     -2591.112          42.000  
G23  19670797.878 1 103370739.481 1       108.972          44.000    19670804.257 1  80548652.771 1        85.024          42.000  
G24  21311725.609 1 111993875.724 1     -4155.703          43.000    21311736.161 1  87267995.642 2     -3238.432          39.000  
G25  21530564.645 1 113143887.215 1      1646.035          44.000    21530577.725 1  88164115.871 2      1282.750          39.000  
G32  22844413.776 1 120048210.132 2       -34.430          40.000    22844423.351 2               6       -26.678          30.000  
R 1  22001013.303 2 117608030.267 4       599.392          34.000    22001025.367 4               7       465.689          28.000  
R 8  20613780.387 1 110385859.813 1      -538.936          44.000    20613787.118 2  85855702.232 5      -419.285          32.000  
R10  19921621.466 2 106193455.253 2     -2916.949          39.000                                                                  
R11  19110961.671 1 102123178.737 1      1195.512          49.000    19110965.121 1  79429158.064 1       929.903          44.000  
R23  20733697.528 1 110911298.970 1     -3439.482          45.000                                                                  
E 9  24046440.520 1 126364896.804 2     -1531.304          40.000    24046456.433 1  96825119.570 4     -1173.737          32.000  
E11  23601241.735 1 124025372.917 2     -3703.119          40.000                                                                  
E24  24787270.419 1 130257986.506 1      1190.335          45.000    24787290.043 1  99808141.406 2       912.213          39.000  
E36  23384553.626 1 122886662.048 1     -1776.955          45.000    23384571.333 1  94159989.218 2     -1361.714          40.000  
C14  22632755.663 1 117854700.908 1       427.735          45.000    22632763.973 1  91132763.096 2       330.732          41.000  
C24  21159718.435 1 110184207.888 1       714.334          48.000                                                                  
> 2023  9 15 18 49 44.5970000  0 17                     
G10  21584563.880 1 113427649.907 1      1748.250          46.000    21584572.782 1  88385220.442 2      1362.106          39.000  
G18  20500019.234 1 107728320.691 1     -3325.457          47.000    20500026.947 1  83944176.645 1     -2591.140          42.000  
G23  19670793.751 1 103370717.708 1       108.923          44.000    19670800.086 1  80548635.808 1        84.758          42.000  
G24  21311883.777 1 111994706.927 1     -4155.975          43.000    21311894.264 1  87268643.337 2     -3238.708          39.000  
G25  21530502.008 1 113143558.076 1      1645.690          44.000    21530515.100 1  88163859.405 2      1282.465          39.000  
G32  22844415.133 1 120048217.079 2       -34.528          40.000    22844424.698 2               6       -26.373          30.000  
R 1  22000990.786 2 117607910.333 4       599.803          34.000    22001002.839 4               7       466.863          28.000  
R 8  20613800.496 1 110385967.637 1      -539.010          44.000    20613807.211 2  85855786.070 5      -418.528          32.000  
R10  19921730.966 2 106194038.687 2     -2917.041          39.000                                                                  
R11  19110916.929 1 102122939.678 1      1195.242          49.000    19110920.351 1  79428972.142 1       929.461          44.000  
R23  20733826.153 1 110911986.934 1     -3439.882          45.000                                                                  
E 9  24046498.826 1 126365203.085 2     -1531.427          40.000    24046514.732 1  96825354.235 4     -1173.232          32.000  
E11  23601382.727 1 124026113.534 2     -3703.222          40.000                                                                  
E24  24787225.187 1 130257748.457 1      1190.201          45.000    24787244.684 1  99807959.009 2       911.854          39.000  
E36  23384621.348 1 122887017.476 1     -1777.281          45.000    23384638.944 1  94160261.559 2     -1361.910          40.000  
C14  22632739.198 1 117854615.378 1       427.797          45.000    22632747.518 1  91132696.965 2       330.571          41.000  
C24  21159691.044 1 110184065.050 1       714.195          48.000                                                                  
> 2023  9 15 18 49 44.7970000  0 17                     
G10  21584497.414 1 113427300.312 1      1747.903          46.000    21584506.273 1  88384948.016 2      1361.990          39.000  
G18  20500145.806 1 107728985.795 1     -3325.688          47.000    20500153.489 1  83944694.912 2     -2591.550          42.000  
G23  19670789.660 1 103370695.979 1       108.328          44.000    19670795.959 1  80548618.871 1        84.384          42.000  
G24  21312041.961 1 111995538.162 1     -4156.526          43.000    21312052.437 1  87269291.048 2     -3238.881          39.000  
G25  21530439.371 1 113143228.953 1      1645.508          44.000    21530452.465 1  88163602.962 2      1282.060          39.000  
G32  22844416.490 1 120048224.057 2       -35.028          40.000    22844426.028 2               6       -27.216          30.000  
R 1  22000968.296 2 117607790.432 4       599.852          34.000    22000980.429 4               7       465.810          28.000  
R 8  20613820.621 1 110386075.473 1      -539.261          45.000    20613827.329 2  85855869.996 5      -419.948          33.000  
R10  19921840.443 2 106194622.204 2     -2917.828          39.000                                                                  
R11  19110872.215 1 102122700.666 1      1194.805          49.000    19110875.630 1  79428786.225 1       929.390          44.000  
R23  20733954.785 1 110912674.899 1     -3440.056          45.000                                                                  
E 9  24046557.154 1 126365509.389 2     -1531.822          40.000    24046573.031 1  96825588.944 4     -1173.599          32.000  
E11  23601523.698 1 124026854.189 2     -3703.474          40.000                                                                  
E24  24787179.906 1 130257510.428 1      1189.965          45.000    24787199.402 1  99807776.613 2       912.058          39.000  
E36  23384689.074 1 122887372.922 1     -1777.372          45.000    23384706.582 1  94160533.902 2     -1361.879          40.000  
C14  22632722.781 1 117854529.869 1       427.489          45.000    22632731.104 1  91132630.846 2       330.350          41.000  
C24  21159663.647 1 110183922.246 1       713.929          48.000                                                                  
> 2023  9 15 18 49 44.9970000  0 17                     
G10  21584430.894 1 113426950.701 1      1748.115          46.000    21584439.730 1  88384675.593 2      1362.118          39.000  
G18  20500272.403 1 107729650.902 1     -3325.646          47.000    20500280.052 1  83945213.171 2     -2591.281          42.000  
G23  19670785.547 1 103370674.222 1       108.716          44.000    19670791.805 1  80548601.917 2        84.512          42.000  
G24  21312200.121 1 111996369.364 1     -4156.076          43.000    21312210.609 1  87269938.727 2     -3238.446          39.000  
G25  21530376.681 1 113142899.826 1      1645.635          44.000    21530389.829 1  88163346.503 2      1282.127          39.000  
G32  22844417.769 1 120048230.998 2       -34.619          40.000    22844427.429 2               6       -26.617          30.000  
R 1  22000945.841 2 117607670.541 4       599.527          34.000    22000958.046 4               6       466.805          28.000  
R 8  20613840.758 1 110386183.301 1      -539.023          45.000    20613847.463 2  85855953.825 5      -419.002          33.000  
R10  19921949.931 2 106195205.706 2     -2917.572          39.000                                                                  
R11  19110827.467 1 102122461.664 1      1194.848          49.000    19110830.847 1  79428600.339 1       929.538          44.000  
R23  20734083.466 1 110913362.884 1     -3439.866          45.000                                                                  
E 9  24046615.364 1 126365815.642 2     -1531.102          40.000    24046631.406 1  96825823.627 4     -1173.577          32.000  
E11  23601664.677 1 124027594.794 2     -3702.676          40.000                                                                  
E24  24787134.574 1 130257272.369 1      1190.347          45.000    24787154.105 1  99807594.224 2       911.939          39.000  
E36  23384756.666 1 122887728.383 1     -1777.380          45.000    23384774.291 1  94160806.258 2     -1361.561          40.000  
C14  22632706.334 1 117854444.339 1       427.674          45.000    22632714.670 1  91132564.705 2       330.553          41.000  
C24  21159636.271 1 110183779.455 1       713.958          48.000                                                                  
> 2023  9 15 18 49 45.1970000  0 17                     
G10  21584364.354 1 113426601.084 1      1747.851          46.000    21584373.182 1  88384403.150 2      1362.456          39.000  
G18  20500398.976 1 107730316.017 1     -3325.747          47.000    20500406.632 1  83945731.450 2     -2591.586          42.000  
G23  19670781.416 1 103370652.491 1       108.352          44.000    19670787.638 1  80548584.977 2        84.475          42.000  
G24  21312358.261 1 111997200.586 2     -4156.284          43.000    21312368.736 1  87270586.432 2     -3238.821          39.000  
G25  21530314.021 1 113142570.695 1      1645.376          44.000    21530327.176 1  88163090.029 2      1282.141          39.000  
G32  22844419.091 1 120048237.946 2       -34.918          40.000    22844428.706 2               6       -27.563          30.000  
R 1  22000923.284 2 117607550.588 4       599.396          34.000    22000935.580 4               6       466.318          28.000  
R 8  20613860.901 1 110386291.109 1      -539.227          45.000    20613867.592 2  85856037.698 5      -419.688          33.000  
R10  19922059.367 2 106195789.250 2     -2918.079          39.000                                                                  
R11  19110782.734 1 102122222.684 1      1194.683          49.000    19110786.154 1  79428414.473 1       929.132          44.000  
R23  20734212.080 1 110914050.887 1     -3440.368          45.000                                                                  
E 9  24046673.707 1 126366121.917 2     -1531.462          40.000    24046689.748 1  96826058.296 5     -1173.723          32.000  
E11  23601805.628 1 124028335.461 2     -3703.362          40.000                                                                  
E24  24787089.254 1 130257034.323 1      1189.988          45.000    24787108.836 1  99807411.818 2       911.913          39.000  
E36  23384824.392 1 122888083.841 1     -1777.515          45.000    23384841.922 1  94161078.650 2     -1362.120          40.000  
C14  22632689.948 1 117854358.799 1       427.562          45.000    22632698.235 1  91132498.556 2       330.422          41.000  
C24  21159608.876 1 110183636.667 1       713.679          48.000                                                                  
> 2023  9 15 18 49 45.3970000  0 17                     
G10  21584297.818 1 113426251.456 1      1748.280          46.000    21584306.678 1  88384130.743 2      1361.854          40.000  
G18  20500525.518 1 107730981.149 1     -3325.557          47.000    20500533.222 1  83946249.734 2     -2591.244          42.000  
G23  19670777.314 1 103370630.770 1       108.513          44.000    19670783.501 1  80548568.047 1        84.655          42.000  
G24  21312516.403 1 111998031.806 2     -4156.045          43.000    21312526.903 1  87271234.118 2     -3238.162          39.000  
G25  21530251.393 1 113142241.559 1      1645.924          44.000    21530264.524 1  88162833.561 2      1282.608          39.000  
G32  22844420.404 1 120048244.876 2       -34.564          40.000    22844430.098 2               6       -26.416          30.000  
R 1  22000900.831 2 117607430.642 4       600.079          34.000    22000913.222 4               6       466.461          29.000  
R 8  20613881.032 1 110386398.925 1      -538.899          45.000    20613887.716 2  85856121.579 5      -419.637          33.000  
R10  19922168.824 2 106196372.792 2     -2917.639          39.000                                                                  
R11  19110738.012 1 102121983.729 1      1194.737          49.000    19110741.428 1  79428228.626 1       929.179          44.000  
R23  20734340.724 1 110914738.885 1     -3439.975          45.000                                                                  
E 9  24046731.962 1 126366428.166 2     -1531.095          40.000    24046748.101 1  96826292.946 5     -1173.068          32.000  
E11  23601946.519 1 124029076.096 2     -3702.906          40.000                                                                  
E24  24787043.886 1 130256796.279 1      1190.305          45.000    24787063.477 1  99807229.425 2       912.104          39.000  
E36  23384891.957 1 122888439.326 1     -1777.380          45.000    23384909.515 1  94161351.018 2     -1361.894          40.000  
C14  22632673.513 1 117854273.250 1       427.746          45.000    22632681.818 1  91132432.394 2       331.044          41.000  
C24  21159581.449 1 110183493.889 1       713.897          48.000                                                                  
> 2023  9 15 18 49 45.5970000  0 17                     
G10  21584231.271 1 113425901.854 1      1747.964          46.000    21584240.136 1  88383858.298 2      1362.067          40.000  
G18  20500652.133 1 107731646.318 1     -3325.940          47.000    20500659.793 1  83946768.048 2     -2591.799          42.000  
G23  19670773.226 1 103370609.080 1       108.299          44.000    19670779.411 1  80548551.139 1        84.466          42.000  
G24  21312674.649 1 111998863.056 1     -4156.517          43.000    21312685.008 1  87271881.860 2     -3238.699          39.000  
G25  21530188.760 1 113141912.462 1      1645.385          44.000    21530201.933 1  88162577.109 2      1282.161          39.000  
G32  22844421.710 1 120048251.832 2       -34.723          40.000    22844431.507 2               6       -25.946          30.000  
R 1  22000878.401 2 117607310.715 4       599.271          34.000    22000890.743 4               6       466.491          29.000  
R 8  20613901.181 1 110386506.749 1      -539.225          45.000    20613907.837 2  85856205.412 5      -419.747          33.000  
R10  19922278.321 2 106196956.392 2     -2918.017          39.000                                                                  
R11  19110693.292 1 102121744.815 1      1194.562          49.000    19110696.746 1  79428042.794 1       928.964          44.000  
R23  20734469.387 1 110915426.936 1     -3440.441          45.000                                                                  
E 9  24046790.220 1 126366734.432 2     -1531.219          40.000    24046806.423 1  96826527.606 4     -1173.097          32.000  
E11  23602087.542 1 124029816.775 2     -3703.726          40.000                                                                  
E24  24786998.582 1 130256558.268 1      1190.018          45.000    24787018.196 1  99807047.047 2       911.739          39.000  
E36  23384959.683 1 122888794.829 1     -1777.668          45.000    23384977.167 1  94161623.414 2     -1361.851          40.000  
C14  22632657.067 1 117854187.706 1       427.623          45.000    22632665.374 1  91132366.258 2       330.750          41.000  
C24  21159554.037 1 110183351.140 1       713.699          48.000                                                                  
> 2023  9 15 18 49 45.7970000  0 17                     
G10  21584164.748 1 113425552.257 1      1747.850          46.000    21584173.608 1  88383585.893 2      1362.198          40.000  
G18  20500778.751 1 107732311.504 1     -3326.252          47.000    20500786.371 1  83947286.370 2     -2591.884          42.000  
G23  19670769.080 1 103370587.399 1       108.195          44.000    19670775.255 1  80548534.258 1        84.188          42.000  
G24  21312832.858 1 111999694.315 2     -4156.521          43.000    21312843.150 1  87272529.593 2     -3238.761          39.000  
G25  21530126.153 1 113141583.361 1      1645.229          44.000    21530139.305 1  88162320.685 2      1281.879          39.000  
G32  22844423.039 1 120048258.790 2       -34.961          40.000    22844432.904 2               7       -28.210          30.000  
R 1  22000855.859 2 117607190.740 4       599.365          34.000    22000868.319 4               6       466.281          29.000  
R 8  20613921.348 1 110386614.573 1      -539.340          45.000    20613927.982 2  85856289.300 5      -419.901          33.000  
R10  19922387.820 2 106197540.053 2     -2918.677          39.000                                                                  
R11  19110648.609 1 102121505.934 1      1194.099          49.000    19110652.051 1  79427857.012 1       928.842          44.000  
R23  20734598.038 1 110916115.003 1     -3440.600          45.000                                                                  
E 9  24046848.463 1 126367040.707 2     -1531.479          40.000    24046864.755 1  96826762.296 4     -1173.812          32.000  
E11  23602228.598 1 124030557.421 2     -3703.479          40.000                                                                  
E24  24786953.199 1 130256320.251 1      1189.993          44.000    24786972.901 1  99806864.674 2       911.673          39.000  
E36  23385027.321 1 122889150.365 1     -1777.778          45.000    23385044.788 1  94161895.843 2     -1362.281          40.000  
C14  22632640.696 1 117854102.178 1       427.667          45.000    22632648.958 1  91132300.122 2       330.521          40.000  
C24  21159526.705 1 110183208.421 1       713.410          48.000                                                                  
> 2023  9 15 18 49 45.9970000  0 17                     
G10  21584098.208 1 113425202.653 1      1748.025          46.000    21584107.080 1  88383313.493 2      1361.892          40.000  
G18  20500905.298 1 107732976.694 1     -3325.911          47.000    20500912.974 1  83947804.693 2     -2591.599          42.000  
G23  19670764.952 1 103370565.731 1       108.429          44.000    19670771.122 1  80548517.371 1        84.423          42.000  
G24  21312991.049 1 112000525.572 2     -4156.389          43.000    21313001.355 1  87273177.326 2     -3238.678          39.000  
G25  21530063.548 1 113141254.256 1      1645.498          45.000    21530076.671 1  88162064.231 2      1282.261          39.000  
G32  22844424.368 1 120048265.730 2       -34.625          40.000    22844434.273 4                       -27.228          30.000  
R 1  22000833.432 2 117607070.768 4       600.029          34.000    22000845.857 4               6       466.654          29.000  
R 8  20613941.489 1 110386722.378 1      -538.844          45.000    20613948.040 2  85856373.129 5      -419.064          33.000  
R10  19922497.339 2 106198123.707 2     -2918.243          39.000                                                                  
R11  19110603.898 1 102121267.069 1      1194.340          49.000    19110607.431 1  79427671.242 1       928.640          44.000  
R23  20734726.732 1 110916803.069 1     -3440.328          45.000                                                                  
E 9  24046906.761 1 126367346.946 2     -1530.946          40.000    24046922.969 1  96826996.927 4     -1172.563          32.000  
E11  23602369.675 1 124031298.097 3     -3703.315          40.000                                                                  
E24  24786907.888 1 130256082.233 1      1190.157          44.000    24786927.685 1  99806682.289 2       912.104          39.000  
E36  23385094.863 1 122889505.909 1     -1777.666          45.000    23385112.439 1  94162168.275 2     -1362.053          40.000  
C14  22632624.307 1 117854016.638 1       427.795          45.000    22632632.528 1  91132233.979 2       330.594          40.000  
C24  21159499.262 1 110183065.698 1       713.599          48.000                                                                  
